[{"City": "Austin", "inspection-date": "2014-12-28T00:00:00Z", "Zip": "78752", "zip": "78752", "restaurant": "Mom's Taste", "process": "Routine Inspection", "Country": "US", "Number": "6613", "Longitude": "-97.715446", "Accuracy Score": "1", "Accuracy Type": "range_interpolation", "State": "TX", "score": "81", "address": "6613 AIRPORT BLVD AUSTIN, TX 78752 ", "Latitude": "30.330709", "County": "Travis County", "id": "10000448", "Street": "Airport Blvd"},
{"City": "Austin", "inspection-date": "2015-12-27T00:00:00Z", "Zip": "78748", "zip": "78748", "restaurant": "Chick-Fil-A", "process": "Routine Inspection", "Country": "US", "Number": "161", "Longitude": "-97.791288", "Accuracy Score": "1", "Accuracy Type": "range_interpolation", "State": "TX", "score": "90", "address": "161 W SLAUGHTER LN Bldg B AUSTIN, TX 78748 ", "Latitude": "30.166962", "County": "Travis County", "id": "10000498", "Street": "W Slaughter Ln"},
{"City": "Austin", "inspection-date": "2015-12-27T00:00:00Z", "Zip": "78702", "zip": "78702", "restaurant": "Lazy Lizard", "process": "Routine Inspection", "Country": "US", "Number": "1504", "Longitude": "-97.727452", "Accuracy Score": "1", "Accuracy Type": "range_interpolation", "State": "TX", "score": "98", "address": "1504 E 6TH ST AUSTIN, TX 78702 ", "Latitude": "30.263516", "County": "Travis County", "id": "10000508", "Street": "E 6th St"},
{"City": "Austin", "inspection-date": "2015-12-27T00:00:00Z", "Zip": "78753", "zip": "78753", "restaurant": "Capitol Food Stop #2", "process": "Routine Inspection", "Country": "US", "Number": "8201", "Longitude": "-97.709153", "Accuracy Score": "1", "Accuracy Type": "range_interpolation", "State": "TX", "score": "82", "address": "8201 N LAMAR BLVD AUSTIN, TX 78753 ", "Latitude": "30.350659", "County": "Travis County", "id": "10000531", "Street": "N Lamar Blvd"},
{"City": "Austin", "inspection-date": "2014-12-28T00:00:00Z", "Zip": "78703", "zip": "78703", "restaurant": "Caffe Medici", "process": "Routine Inspection", "Country": "US", "Number": "1101", "Longitude": "-97.759423", "Accuracy Score": "1", "Accuracy Type": "range_interpolation", "State": "TX", "score": "100", "address": "1101 WEST LYNN ST AUSTIN, TX 78703 ", "Latitude": "30.279641", "County": "Travis County", "id": "10000619", "Street": "W Lynn St"},
{"City": "Austin", "inspection-date": "2014-12-28T00:00:00Z", "Zip": "78732", "zip": "78732", "restaurant": "The Children's Center of Austin", "process": "Routine Inspection", "Country": "US", "Number": "4308", "Longitude": "-97.910258", "Accuracy Score": "0.9", "Accuracy Type": "range_interpolation", "State": "TX", "score": "95", "address": "4308 N QUINLAN PARK RD AUSTIN, TX 78732 ", "Latitude": "30.354567", "County": "Travis County", "id": "10000683", "Street": "Quinlan Park Rd N"},
{"City": "Austin", "inspection-date": "2015-12-27T00:00:00Z", "Zip": "78727", "zip": "78727", "restaurant": "Kolache Factory", "process": "Routine Inspection", "Country": "US", "Number": "4101", "Longitude": "-97.716286", "Accuracy Score": "1", "Accuracy Type": "range_interpolation", "State": "TX", "score": "82", "address": "4101 W PARMER LN Unit A AUSTIN, TX 78727 ", "Latitude": "30.425788", "County": "Travis County", "id": "10000684", "Street": "W Parmer Ln"},
{"City": "Austin", "inspection-date": "2015-12-27T00:00:00Z", "Zip": "78704", "zip": "78704", "restaurant": "Sunrise Mini Mart", "process": "Routine Inspection", "Country": "US", "Number": "539", "Longitude": "-97.750352", "Accuracy Score": "1", "Accuracy Type": "range_interpolation", "State": "TX", "score": "96", "address": "539 W OLTORF ST AUSTIN, TX 78704 ", "Latitude": "30.23689", "County": "Travis County", "id": "10000688", "Street": "E Oltorf St"},
{"City": "Austin", "inspection-date": "2015-12-27T00:00:00Z", "Zip": "78731", "zip": "78731", "restaurant": "Sawyer Food Service- Hancock", "process": "Routine Inspection", "Country": "US", "Number": "2823", "Longitude": "-97.750141", "Accuracy Score": "1", "Accuracy Type": "range_interpolation", "State": "TX", "score": "96", "address": "2823 HANCOCK DR AUSTIN, TX 78731 ", "Latitude": "30.328024", "County": "Travis County", "id": "10000695", "Street": "Hancock Dr"},
{"City": "Austin", "inspection-date": "2015-12-27T00:00:00Z", "Zip": "78753", "zip": "78753", "restaurant": "Short N Sweet", "process": "Routine Inspection", "Country": "US", "Number": "10901", "Longitude": "-97.688756", "Accuracy Score": "1", "Accuracy Type": "range_interpolation", "State": "TX", "score": "82", "address": "10901 N LAMAR BLVD Unit 104 AUSTIN, TX 78753 ", "Latitude": "30.377535", "County": "Travis County", "id": "10000697", "Street": "N Lamar Blvd"},
{"City": "Austin", "inspection-date": "2014-12-28T00:00:00Z", "Zip": "78744", "zip": "78744", "restaurant": "Church's Chicken", "process": "Routine Inspection", "Country": "US", "Number": "5309", "Longitude": "-97.738818", "Accuracy Score": "1", "Accuracy Type": "range_interpolation", "State": "TX", "score": "100", "address": "5309 NUCKOLS CROSSING RD AUSTIN, TX 78744 ", "Latitude": "30.193018", "County": "Travis County", "id": "10000709", "Street": "Nuckols Crossing Rd"},
{"City": "Austin", "inspection-date": "2014-12-28T00:00:00Z", "Zip": "78745", "zip": "78745", "restaurant": "Hyde Park Bar & Grill South", "process": "Routine Inspection", "Country": "US", "Number": "4521", "Longitude": "-97.801081", "Accuracy Score": "1", "Accuracy Type": "range_interpolation", "State": "TX", "score": "92", "address": "4521 WEST GATE BLVD AUSTIN, TX 78745 ", "Latitude": "30.229236", "County": "Travis County", "id": "10000718", "Street": "W Gate Blvd"},
{"City": "Austin", "inspection-date": "2014-12-28T00:00:00Z", "Zip": "78721", "zip": "78721", "restaurant": "Restaurant El Rey", "process": "Routine Inspection", "Country": "US", "Number": "3306", "Longitude": "-97.697868", "Accuracy Score": "1", "Accuracy Type": "range_interpolation", "State": "TX", "score": "82", "address": "3306 OAK SPRINGS DR AUSTIN, TX 78721 ", "Latitude": "30.27372", "County": "Travis County", "id": "10000741", "Street": "Oak Springs Dr"},
{"City": "Austin", "inspection-date": "2015-12-27T00:00:00Z", "Zip": "78735", "zip": "78735", "restaurant": "West Rural Community Center", "process": "Routine Inspection", "Country": "US", "Number": "", "Longitude": "-97.860767", "Accuracy Score": "0.22", "Accuracy Type": "place", "State": "TX", "score": "97", "address": "8656 W SH 71 Bldg A AUSTIN, TX 78735 ", "Latitude": "30.267607", "County": "Travis County", "id": "10000953", "Street": ""},
{"City": "Austin", "inspection-date": "2014-12-28T00:00:00Z", "Zip": "78753", "zip": "78753", "restaurant": "Pho Saigon", "process": "Routine Inspection", "Country": "US", "Number": "10901", "Longitude": "-97.688756", "Accuracy Score": "1", "Accuracy Type": "range_interpolation", "State": "TX", "score": "74", "address": "10901 N LAMAR BLVD Unit 108 AUSTIN, TX 78753 ", "Latitude": "30.377535", "County": "Travis County", "id": "10001056", "Street": "N Lamar Blvd"},
{"City": "Austin", "inspection-date": "2015-12-27T00:00:00Z", "Zip": "78744", "zip": "78744", "restaurant": "Dove Springs Recreation Center", "process": "Routine Inspection", "Country": "US", "Number": "5801", "Longitude": "-97.739375", "Accuracy Score": "1", "Accuracy Type": "range_interpolation", "State": "TX", "score": "97", "address": "5801 AINEZ DR AUSTIN, TX 78744 ", "Latitude": "30.187486", "County": "Travis County", "id": "10001074", "Street": "Ainez Dr"},
{"City": "Austin", "inspection-date": "2015-12-27T00:00:00Z", "Zip": "78723", "zip": "78723", "restaurant": "Fred Groceries Inc.", "process": "Routine Inspection", "Country": "US", "Number": "6715", "Longitude": "-97.690918", "Accuracy Score": "1", "Accuracy Type": "range_interpolation", "State": "TX", "score": "90", "address": "6715 E US 290 HWY EB AUSTIN, TX 78723 ", "Latitude": "30.320703", "County": "Travis County", "id": "10001098", "Street": "E Hwy 290"},
{"City": "Austin", "inspection-date": "2014-12-28T00:00:00Z", "Zip": "78741", "zip": "78741", "restaurant": "Riverside Golf Course", "process": "Routine Inspection", "Country": "US", "Number": "1020", "Longitude": "-97.703528", "Accuracy Score": "1", "Accuracy Type": "range_interpolation", "State": "TX", "score": "90", "address": "1020 GROVE BLVD AUSTIN, TX 78741 ", "Latitude": "30.236595", "County": "Travis County", "id": "10001140", "Street": "Grove Blvd"},
{"City": "Austin", "inspection-date": "2015-12-27T00:00:00Z", "Zip": "78752", "zip": "78752", "restaurant": "Panda Express #1319", "process": "Routine Inspection", "Country": "US", "Number": "5764", "Longitude": "-97.713662", "Accuracy Score": "1", "Accuracy Type": "range_interpolation", "State": "TX", "score": "96", "address": "5764 AIRPORT BLVD AUSTIN, TX 78752 ", "Latitude": "30.321296", "County": "Travis County", "id": "10001260", "Street": "Airport Blvd"},
{"City": "Austin", "inspection-date": "2015-12-27T00:00:00Z", "Zip": "78728", "zip": "78728", "restaurant": "El Faro Taco and Cafe", "process": "Routine Inspection", "Country": "US", "Number": "1779", "Longitude": "-97.673557", "Accuracy Score": "1", "Accuracy Type": "range_interpolation", "State": "TX", "score": "90", "address": "1779 W WELLS BRANCH PKWY AUSTIN, TX 78728 ", "Latitude": "30.437173", "County": "Travis County", "id": "10001292", "Street": "Wells Branch Pkwy"},
{"City": "Austin", "inspection-date": "2014-12-28T00:00:00Z", "Zip": "78723", "zip": "78723", "restaurant": "Popeyes Chicken & Biscuits", "process": "Routine Inspection", "Country": "US", "Number": "5630", "Longitude": "-97.70291", "Accuracy Score": "1", "Accuracy Type": "range_interpolation", "State": "TX", "score": "97", "address": "5630 CAMERON RD AUSTIN, TX 78723 ", "Latitude": "30.314914", "County": "Travis County", "id": "10001423", "Street": "Cameron Rd"},
{"City": "Austin", "inspection-date": "2014-12-28T00:00:00Z", "Zip": "78745", "zip": "78745", "restaurant": "Popeye's Chicken and Biscuits", "process": "Routine Inspection", "Country": "US", "Number": "111", "Longitude": "-97.779558", "Accuracy Score": "1", "Accuracy Type": "range_interpolation", "State": "TX", "score": "100", "address": "111 W WILLIAM CANNON DR AUSTIN, TX 78745 ", "Latitude": "30.193082", "County": "Travis County", "id": "10001424", "Street": "W William Cannon Dr"},
{"City": "Austin", "inspection-date": "2014-12-28T00:00:00Z", "Zip": "78701", "zip": "78701", "restaurant": "Royal Blue Grocery", "process": "Routine Inspection", "Country": "US", "Number": "247", "Longitude": "-97.745653", "Accuracy Score": "1", "Accuracy Type": "range_interpolation", "State": "TX", "score": "100", "address": "247 W 3RD ST AUSTIN, TX 78701 ", "Latitude": "30.265616", "County": "Travis County", "id": "10001444", "Street": "W 3rd St"},
{"City": "Austin", "inspection-date": "2014-12-28T00:00:00Z", "Zip": "78753", "zip": "78753", "restaurant": "MT Supermarket - Meat/Seafood", "process": "Routine Inspection", "Country": "US", "Number": "10901", "Longitude": "-97.688756", "Accuracy Score": "1", "Accuracy Type": "range_interpolation", "State": "TX", "score": "97", "address": "10901 N LAMAR BLVD Bldg G AUSTIN, TX 78753 ", "Latitude": "30.377535", "County": "Travis County", "id": "10001446", "Street": "N Lamar Blvd"},
{"City": "Austin", "inspection-date": "2014-12-28T00:00:00Z", "Zip": "78736", "zip": "78736", "restaurant": "Subway", "process": "Routine Inspection", "Country": "US", "Number": "9520", "Longitude": "-97.941227", "Accuracy Score": "0.9", "Accuracy Type": "range_interpolation", "State": "TX", "score": "93", "address": "9520 W US 290 HWY AUSTIN, TX 78736 ", "Latitude": "30.228465", "County": "Travis County", "id": "10001477", "Street": "Us Hwy 290"},
{"City": "Austin", "inspection-date": "2015-12-27T00:00:00Z", "Zip": "78748", "zip": "78748", "restaurant": "Tino's Greek Cafe", "process": "Routine Inspection", "Country": "US", "Number": "9901", "Longitude": "-97.848677", "Accuracy Score": "1", "Accuracy Type": "range_interpolation", "State": "TX", "score": "82", "address": "9901 BRODIE LN AUSTIN, TX 78748 ", "Latitude": "30.184591", "County": "Travis County", "id": "10001509", "Street": "Brodie Ln"},
{"City": "Austin", "inspection-date": "2014-12-28T00:00:00Z", "Zip": "78703", "zip": "78703", "restaurant": "Galaxy Cafe", "process": "Routine Inspection", "Country": "US", "Number": "1000", "Longitude": "-97.759898", "Accuracy Score": "1", "Accuracy Type": "range_interpolation", "State": "TX", "score": "91", "address": "1000 WEST LYNN ST AUSTIN, TX 78703 ", "Latitude": "30.279253", "County": "Travis County", "id": "10001511", "Street": "W Lynn St"},
{"City": "Austin", "inspection-date": "2014-12-28T00:00:00Z", "Zip": "78745", "zip": "78745", "restaurant": "Baskin Robbins", "process": "Routine Inspection", "Country": "US", "Number": "730", "Longitude": "-97.783868", "Accuracy Score": "1", "Accuracy Type": "range_interpolation", "State": "TX", "score": "91", "address": "730 W STASSNEY LN Unit 150 AUSTIN, TX 78745 ", "Latitude": "30.209196", "County": "Travis County", "id": "10001578", "Street": "W Stassney Ln"},
{"City": "Austin", "inspection-date": "2015-12-27T00:00:00Z", "Zip": "78746", "zip": "78746", "restaurant": "The Summit at Westlake Hills", "process": "Routine Inspection", "Country": "US", "Number": "1034", "Longitude": "-97.787017", "Accuracy Score": "1", "Accuracy Type": "range_interpolation", "State": "TX", "score": "97", "address": "1034 LIBERTY PARK DR AUSTIN, TX 78746 ", "Latitude": "30.264774", "County": "Travis County", "id": "10001582", "Street": "Liberty Park Dr"},
{"City": "Austin", "inspection-date": "2014-12-28T00:00:00Z", "Zip": "78737", "zip": "78736", "restaurant": "Taqueria La Escondida #2", "process": "Routine Inspection", "Country": "US", "Number": "10900", "Longitude": "-97.955914", "Accuracy Score": "1", "Accuracy Type": "range_interpolation", "State": "TX", "score": "87", "address": "10900 W US 290 HWY AUSTIN, TX 78736 ", "Latitude": "30.22184", "County": "Travis County", "id": "10001611", "Street": "W Hwy 290"},
{"City": "Austin", "inspection-date": "2015-12-27T00:00:00Z", "Zip": "78704", "zip": "78704", "restaurant": "Walgreens #01933", "process": "Routine Inspection", "Country": "US", "Number": "2501", "Longitude": "-97.777771", "Accuracy Score": "1", "Accuracy Type": "range_interpolation", "State": "TX", "score": "98", "address": "2501 S LAMAR BLVD AUSTIN, TX 78704 ", "Latitude": "30.246435", "County": "Travis County", "id": "10001616", "Street": "S Lamar Blvd"},
{"City": "Austin", "inspection-date": "2014-12-28T00:00:00Z", "Zip": "78758", "zip": "78758", "restaurant": "Texaco Braker Mart", "process": "Routine Inspection", "Country": "US", "Number": "2601", "Longitude": "-97.720232", "Accuracy Score": "1", "Accuracy Type": "range_interpolation", "State": "TX", "score": "90", "address": "2601 W BRAKER LN AUSTIN, TX 78758 ", "Latitude": "30.390631", "County": "Travis County", "id": "10001712", "Street": "W Braker Ln"},
{"City": "Dripping Springs", "inspection-date": "2015-12-27T00:00:00Z", "Zip": "78620", "zip": "78620", "restaurant": "Hamilton Market", "process": "Routine Inspection", "Country": "US", "Number": "18901", "Longitude": "-98.074645", "Accuracy Score": "1", "Accuracy Type": "range_interpolation", "State": "TX", "score": "90", "address": "18901 HAMILTON POOL RD DRIPPING SPRINGS, TX 78620 ", "Latitude": "30.290762", "County": "Hays County", "id": "10001726", "Street": "Hamilton Pool Rd"},
{"City": "Austin", "inspection-date": "2015-12-27T00:00:00Z", "Zip": "78753", "zip": "78753", "restaurant": "Bombay Express", "process": "Routine Inspection", "Country": "US", "Number": "", "Longitude": "-97.672564", "Accuracy Score": "0.8", "Accuracy Type": "street_center", "State": "TX", "score": "94", "address": "13000 N IH 35 SVRD SB Bunit 216 AUSTIN, TX 78753 ", "Latitude": "30.388532", "County": "Travis County", "id": "10001837", "Street": "I- 35"},
{"City": "Manor", "inspection-date": "2015-12-27T00:00:00Z", "Zip": "78653", "zip": "78653", "restaurant": "MN - Manor Elementary School", "process": "Routine Inspection", "Country": "US", "Number": "12904", "Longitude": "-97.561388", "Accuracy Score": "1", "Accuracy Type": "range_interpolation", "State": "TX", "score": "97", "address": "12904 GREGG MANOR RD MANOR, TX 78653 ", "Latitude": "30.357125", "County": "Travis County", "id": "10002011", "Street": "Gregg Manor Rd"},
{"City": "Austin", "inspection-date": "2015-12-27T00:00:00Z", "Zip": "78728", "zip": "78728", "restaurant": "Homer's Bar and Grill", "process": "Routine Inspection", "Country": "US", "Number": "1779", "Longitude": "-97.673557", "Accuracy Score": "1", "Accuracy Type": "range_interpolation", "State": "TX", "score": "87", "address": "1779 W WELLS BRANCH PKWY AUSTIN, TX 78728 ", "Latitude": "30.437173", "County": "Travis County", "id": "10002015", "Street": "Wells Branch Pkwy"},
{"City": "Austin", "inspection-date": "2015-12-27T00:00:00Z", "Zip": "78750", "zip": "78729", "restaurant": "Texas Roadhouse", "process": "Routine Inspection", "Country": "US", "Number": "13435", "Longitude": "-97.789869", "Accuracy Score": "1", "Accuracy Type": "range_interpolation", "State": "TX", "score": "90", "address": "13435 N US 183 HWY NB Bldg 7 AUSTIN, TX 78729 ", "Latitude": "30.447296", "County": "Travis County", "id": "10002062", "Street": "N Us Hwy 183"},
{"City": "Austin", "inspection-date": "2014-12-28T00:00:00Z", "Zip": "78748", "zip": "78748", "restaurant": "Carino's Italian Kitchen", "process": "Routine Inspection", "Country": "US", "Number": "", "Longitude": "-97.792996", "Accuracy Score": "0.8", "Accuracy Type": "street_center", "State": "TX", "score": "73", "address": "9500 S IH 35 SVRD SB AUSTIN, TX 78748 ", "Latitude": "30.148782", "County": "Travis County", "id": "10002105", "Street": "I- 35"},
{"City": "Austin", "inspection-date": "2014-12-28T00:00:00Z", "Zip": "78753", "zip": "78753", "restaurant": "TC Noodle House", "process": "Routine Inspection", "Country": "US", "Number": "10901", "Longitude": "-97.688756", "Accuracy Score": "1", "Accuracy Type": "range_interpolation", "State": "TX", "score": "87", "address": "10901 N LAMAR BLVD Bunit 203 AUSTIN, TX 78753 ", "Latitude": "30.377535", "County": "Travis County", "id": "10002121", "Street": "N Lamar Blvd"},
{"City": "Austin", "inspection-date": "2014-12-28T00:00:00Z", "Zip": "78741", "zip": "78744", "restaurant": "Patsy's", "process": "Routine Inspection", "Country": "US", "Number": "5001", "Longitude": "-97.727236", "Accuracy Score": "1", "Accuracy Type": "range_interpolation", "State": "TX", "score": "94", "address": "5001 E BEN WHITE BLVD EB AUSTIN, TX 78744 ", "Latitude": "30.213849", "County": "Travis County", "id": "10002156", "Street": "E Ben White Blvd"},
{"City": "Austin", "inspection-date": "2014-12-28T00:00:00Z", "Zip": "78717", "zip": "78717", "restaurant": "Sonic Drive In #113", "process": "Routine Inspection", "Country": "US", "Number": "9215", "Longitude": "-97.765728", "Accuracy Score": "1", "Accuracy Type": "range_interpolation", "State": "TX", "score": "100", "address": "9215 W PARMER LN AUSTIN, TX 78717 ", "Latitude": "30.478068", "County": "Williamson County", "id": "10002170", "Street": "W Parmer Ln"},
{"City": "Austin", "inspection-date": "2014-12-28T00:00:00Z", "Zip": "78701", "zip": "78701", "restaurant": "Lambert's Downtown Barbecue", "process": "Routine Inspection", "Country": "US", "Number": "401", "Longitude": "-97.747672", "Accuracy Score": "1", "Accuracy Type": "range_interpolation", "State": "TX", "score": "75", "address": "401 W 2ND ST AUSTIN, TX 78701 ", "Latitude": "30.265436", "County": "Travis County", "id": "10002278", "Street": "W 2nd St"},
{"City": "Austin", "inspection-date": "2015-12-27T00:00:00Z", "Zip": "78753", "zip": "78753", "restaurant": "Super 8 Motel", "process": "Routine Inspection", "Country": "US", "Number": "", "Longitude": "-97.672564", "Accuracy Score": "0.8", "Accuracy Type": "street_center", "State": "TX", "score": "85", "address": "8128 N IH 35 SVRD SB AUSTIN, TX 78753 ", "Latitude": "30.388532", "County": "Travis County", "id": "10002408", "Street": "I- 35"},
{"City": "Austin", "inspection-date": "2014-12-28T00:00:00Z", "Zip": "78753", "zip": "78753", "restaurant": "First Chinese BBQ", "process": "Routine Inspection", "Country": "US", "Number": "10901", "Longitude": "-97.688756", "Accuracy Score": "1", "Accuracy Type": "range_interpolation", "State": "TX", "score": "83", "address": "10901 N LAMAR BLVD Unit 104 AUSTIN, TX 78753 ", "Latitude": "30.377535", "County": "Travis County", "id": "10002411", "Street": "N Lamar Blvd"},
{"City": "Austin", "inspection-date": "2014-12-28T00:00:00Z", "Zip": "78753", "zip": "78753", "restaurant": "Subway Sandwich #22880", "process": "Routine Inspection", "Country": "US", "Number": "1030", "Longitude": "-97.692558", "Accuracy Score": "1", "Accuracy Type": "range_interpolation", "State": "TX", "score": "94", "address": "1030 NORWOOD PARK BLVD Bunit 100 AUSTIN, TX 78753 ", "Latitude": "30.338521", "County": "Travis County", "id": "10002414", "Street": "Norwood Park Blvd"},
{"City": "Austin", "inspection-date": "2014-12-28T00:00:00Z", "Zip": "78717", "zip": "78717", "restaurant": "CVS Pharmacy #526", "process": "Routine Inspection", "Country": "US", "Number": "10550", "Longitude": "-97.774753", "Accuracy Score": "0.8", "Accuracy Type": "range_interpolation", "State": "TX", "score": "100", "address": "10550 W PARMER LN AUSTIN, TX 78717 ", "Latitude": "30.495896", "County": "Williamson County", "id": "10002488", "Street": "W Parmer Ln"},
{"City": "Manor", "inspection-date": "2015-12-27T00:00:00Z", "Zip": "78653", "zip": "78653", "restaurant": "MN - Blake Manor Elementary School", "process": "Routine Inspection", "Country": "US", "Number": "18010", "Longitude": "-97.535108", "Accuracy Score": "1", "Accuracy Type": "range_interpolation", "State": "TX", "score": "95", "address": "18010 BLAKE MANOR RD AUSTIN, TX 78653 ", "Latitude": "30.308189", "County": "Travis County", "id": "10002545", "Street": "Blake Manor Rd"},
{"City": "Manor", "inspection-date": "2015-12-27T00:00:00Z", "Zip": "78653", "zip": "78653", "restaurant": "MN - Manor Middle School", "process": "Routine Inspection", "Country": "US", "Number": "12900", "Longitude": "-97.561357", "Accuracy Score": "1", "Accuracy Type": "range_interpolation", "State": "TX", "score": "100", "address": "12900 GREGG MANOR RD MANOR, TX 78653 ", "Latitude": "30.357044", "County": "Travis County", "id": "10002549", "Street": "Gregg Manor Rd"},
{"City": "Austin", "inspection-date": "2014-12-28T00:00:00Z", "Zip": "78751", "zip": "78751", "restaurant": "Vino Vino", "process": "Routine Inspection", "Country": "US", "Number": "4119", "Longitude": "-97.735541", "Accuracy Score": "1", "Accuracy Type": "range_interpolation", "State": "TX", "score": "100", "address": "4119 GUADALUPE ST AUSTIN, TX 78751 ", "Latitude": "30.306529", "County": "Travis County", "id": "10002550", "Street": "Guadalupe St"},
{"City": "Austin", "inspection-date": "2015-12-27T00:00:00Z", "Zip": "78753", "zip": "78753", "restaurant": "Mom's Grocery", "process": "Routine Inspection", "Country": "US", "Number": "1425", "Longitude": "-97.677326", "Accuracy Score": "1", "Accuracy Type": "range_interpolation", "State": "TX", "score": "80", "address": "1425 E RUNDBERG LN Unit 100 AUSTIN, TX 78753 ", "Latitude": "30.351588", "County": "Travis County", "id": "10002574", "Street": "E Rundberg Ln"},
{"City": "Austin", "inspection-date": "2014-12-28T00:00:00Z", "Zip": "78750", "zip": "78750", "restaurant": "Taqueria La Tapatia", "process": "Routine Inspection", "Country": "US", "Number": "13450", "Longitude": "-97.790176", "Accuracy Score": "0.8", "Accuracy Type": "range_interpolation", "State": "TX", "score": "79", "address": "13450 N US 183 HWY SB Unit 243 AUSTIN, TX 78750 ", "Latitude": "30.447885", "County": "Travis County", "id": "10002586", "Street": "N Us Hwy 183"},
{"City": "Austin", "inspection-date": "2014-12-28T00:00:00Z", "Zip": "78726", "zip": "78726", "restaurant": "Taco Cabana #293", "process": "Routine Inspection", "Country": "US", "Number": "7409", "Longitude": "-97.85239", "Accuracy Score": "1", "Accuracy Type": "range_interpolation", "State": "TX", "score": "97", "address": "7409 N FM 620 RD Bldg 3 AUSTIN, TX 78726 ", "Latitude": "30.407214", "County": "Travis County", "id": "10002594", "Street": "Fm 620"},
{"City": "Austin", "inspection-date": "2014-12-28T00:00:00Z", "Zip": "78705", "zip": "78705", "restaurant": "Star of Texas", "process": "Routine Inspection", "Country": "US", "Number": "611", "Longitude": "-97.744047", "Accuracy Score": "1", "Accuracy Type": "range_interpolation", "State": "TX", "score": "100", "address": "611 W 22ND ST AUSTIN, TX 78705 ", "Latitude": "30.285038", "County": "Travis County", "id": "10002635", "Street": "W 22nd St"},
{"City": "Austin", "inspection-date": "2015-12-27T00:00:00Z", "Zip": "78746", "zip": "78746", "restaurant": "WL - Eanes Elementary", "process": "Routine Inspection", "Country": "US", "Number": "4101", "Longitude": "-97.810606", "Accuracy Score": "0.8", "Accuracy Type": "range_interpolation", "State": "TX", "score": "97", "address": "4101 BEE CAVES RD WEST LAKE HILLS, TX 78746 ", "Latitude": "30.283336", "County": "Travis County", "id": "10002740", "Street": "Bee Caves Rd"},
{"City": "Austin", "inspection-date": "2015-12-27T00:00:00Z", "Zip": "78746", "zip": "78746", "restaurant": "WL - Forest Trail Elementary", "process": "Routine Inspection", "Country": "US", "Number": "1201", "Longitude": "-97.822269", "Accuracy Score": "1", "Accuracy Type": "range_interpolation", "State": "TX", "score": "100", "address": "1201 S CAPITAL OF TEXAS HWY NB WEST LAKE HILLS, TX 78746 ", "Latitude": "30.281275", "County": "Travis County", "id": "10002741", "Street": "S Capital Of Texas Hwy"},
{"City": "Austin", "inspection-date": "2014-12-28T00:00:00Z", "Zip": "78746", "zip": "78746", "restaurant": "WL - Starbucks Coffee #691", "process": "Routine Inspection", "Country": "US", "Number": "3300", "Longitude": "-97.801287", "Accuracy Score": "0.8", "Accuracy Type": "range_interpolation", "State": "TX", "score": "100", "address": "3300 BEE CAVES RD Unit 250 WEST LAKE HILLS, TX 78746 ", "Latitude": "30.274913", "County": "Travis County", "id": "10002742", "Street": "Bee Caves Rd"},
{"City": "Austin", "inspection-date": "2014-12-28T00:00:00Z", "Zip": "78746", "zip": "78746", "restaurant": "WL - Texas Honey Ham", "process": "Routine Inspection", "Country": "US", "Number": "3736", "Longitude": "-97.80711", "Accuracy Score": "1", "Accuracy Type": "range_interpolation", "State": "TX", "score": "90", "address": "3736 BEE CAVES RD Unit 6A WEST LAKE HILLS, TX 78746 ", "Latitude": "30.280175", "County": "Travis County", "id": "10002745", "Street": "Bee Caves Rd"},
{"City": "Austin", "inspection-date": "2015-12-27T00:00:00Z", "Zip": "78746", "zip": "78746", "restaurant": "WL - Valley View Elementary", "process": "Routine Inspection", "Country": "US", "Number": "1201", "Longitude": "-97.822269", "Accuracy Score": "1", "Accuracy Type": "range_interpolation", "State": "TX", "score": "100", "address": "1201 S CAPITAL OF TEXAS HWY NB WEST LAKE HILLS, TX 78746 ", "Latitude": "30.281275", "County": "Travis County", "id": "10002749", "Street": "S Capital Of Texas Hwy"},
{"City": "Austin", "inspection-date": "2014-12-28T00:00:00Z", "Zip": "78752", "zip": "78752", "restaurant": "Spec's Wine, Liquor & Fine Foods", "process": "Routine Inspection", "Country": "US", "Number": "5775", "Longitude": "-97.713328", "Accuracy Score": "1", "Accuracy Type": "range_interpolation", "State": "TX", "score": "100", "address": "5775 AIRPORT BLVD AUSTIN, TX 78752 ", "Latitude": "30.321605", "County": "Travis County", "id": "10002913", "Street": "Airport Blvd"},
{"City": "Austin", "inspection-date": "2015-12-27T00:00:00Z", "Zip": "78749", "zip": "78749", "restaurant": "Wal-Mart #2133-Milk/ Ice Cream", "process": "Routine Inspection", "Country": "US", "Number": "", "Longitude": "-97.857733", "Accuracy Score": "0.8", "Accuracy Type": "street_center", "State": "TX", "score": "99", "address": "5017 W US 290 HWY EB AUSTIN, TX 78749 ", "Latitude": "30.235099", "County": "Travis County", "id": "10002963", "Street": "State Hwy 71"},
{"City": "Austin", "inspection-date": "2015-12-27T00:00:00Z", "Zip": "78749", "zip": "78749", "restaurant": "Wings to Go", "process": "Routine Inspection", "Country": "US", "Number": "6611", "Longitude": "-97.824865", "Accuracy Score": "1", "Accuracy Type": "range_interpolation", "State": "TX", "score": "95", "address": "6611 S MOPAC EXPY NB Bunit 600 AUSTIN, TX 78749 ", "Latitude": "30.233452", "County": "Travis County", "id": "10002982", "Street": "S Mo Pac Expy"},
{"City": "Austin", "inspection-date": "2014-12-28T00:00:00Z", "Zip": "78738", "zip": "78738", "restaurant": "LW - Hills Country Club-World of Tennis", "process": "Routine Inspection", "Country": "US", "Number": "1", "Longitude": "-97.997248", "Accuracy Score": "1", "Accuracy Type": "range_interpolation", "State": "TX", "score": "100", "address": "1 WORLD OF TENNIS SQ LAKEWAY, TX 78738 ", "Latitude": "30.351421", "County": "Travis County", "id": "10002985", "Street": "World Of Tennis Sq"},
{"City": "Austin", "inspection-date": "2015-12-27T00:00:00Z", "Zip": "78701", "zip": "78701", "restaurant": "III Forks #350", "process": "Routine Inspection", "Country": "US", "Number": "111", "Longitude": "-97.74677", "Accuracy Score": "1", "Accuracy Type": "range_interpolation", "State": "TX", "score": "74", "address": "111 LAVACA ST AUSTIN, TX 78701 ", "Latitude": "30.264117", "County": "Travis County", "id": "10003014", "Street": "Lavaca St"},
{"City": "Austin", "inspection-date": "2014-12-28T00:00:00Z", "Zip": "78753", "zip": "78758", "restaurant": "Prime Mart", "process": "Routine Inspection", "Country": "US", "Number": "12430", "Longitude": "-97.678464", "Accuracy Score": "1", "Accuracy Type": "range_interpolation", "State": "TX", "score": "90", "address": "12430 N LAMAR BLVD AUSTIN, TX 78758 ", "Latitude": "30.407206", "County": "Travis County", "id": "10003038", "Street": "N Lamar Blvd"},
{"City": "Austin", "inspection-date": "2014-12-28T00:00:00Z", "Zip": "78704", "zip": "78704", "restaurant": "Irie Bean", "process": "Routine Inspection", "Country": "US", "Number": "2310", "Longitude": "-97.775408", "Accuracy Score": "1", "Accuracy Type": "range_interpolation", "State": "TX", "score": "84", "address": "2310 S LAMAR BLVD Unit 102 AUSTIN, TX 78704 ", "Latitude": "30.247425", "County": "Travis County", "id": "10003328", "Street": "S Lamar Blvd"},
{"City": "Austin", "inspection-date": "2014-12-28T00:00:00Z", "Zip": "78746", "zip": "78746", "restaurant": "RW - Panera Bread Bakery and Cafe", "process": "Routine Inspection", "Country": "US", "Number": "2805", "Longitude": "-97.788994", "Accuracy Score": "1", "Accuracy Type": "range_interpolation", "State": "TX", "score": "94", "address": "2805 BEE CAVES RD Unit 410 ROLLINGWOOD, TX 78746 ", "Latitude": "30.270988", "County": "Travis County", "id": "10003334", "Street": "Bee Caves Rd"},
{"City": "Austin", "inspection-date": "2014-12-28T00:00:00Z", "Zip": "78756", "zip": "78756", "restaurant": "Thunderbird Cafe and Tap Room", "process": "Routine Inspection", "Country": "US", "Number": "1401", "Longitude": "-97.731592", "Accuracy Score": "1", "Accuracy Type": "range_interpolation", "State": "TX", "score": "88", "address": "1401 W KOENIG LN AUSTIN, TX 78756 ", "Latitude": "30.331021", "County": "Travis County", "id": "10003362", "Street": "W Koenig Ln"},
{"City": "Austin", "inspection-date": "2014-12-28T00:00:00Z", "Zip": "78701", "zip": "78701", "restaurant": "2nd Street Market", "process": "Routine Inspection", "Country": "US", "Number": "200", "Longitude": "-97.74179", "Accuracy Score": "1", "Accuracy Type": "range_interpolation", "State": "TX", "score": "97", "address": "200 SAN JACINTO BLVD AUSTIN, TX 78701 ", "Latitude": "30.263791", "County": "Travis County", "id": "10003368", "Street": "San Jacinto Blvd"},
{"City": "Austin", "inspection-date": "2015-12-27T00:00:00Z", "Zip": "78744", "zip": "78744", "restaurant": "C-Mart #7", "process": "Routine Inspection", "Country": "US", "Number": "5200", "Longitude": "-97.74809", "Accuracy Score": "1", "Accuracy Type": "range_interpolation", "State": "TX", "score": "89", "address": "5200 E WILLIAM CANNON DR AUSTIN, TX 78744 ", "Latitude": "30.180294", "County": "Travis County", "id": "10003415", "Street": "E William Cannon Dr"},
{"City": "Austin", "inspection-date": "2014-12-28T00:00:00Z", "Zip": "78748", "zip": "78748", "restaurant": "Mama Fu's Southpark", "process": "Routine Inspection", "Country": "US", "Number": "", "Longitude": "-97.792996", "Accuracy Score": "0.8", "Accuracy Type": "street_center", "State": "TX", "score": "81", "address": "9600 S IH 35 SVRD SB Bunit 500 AUSTIN, TX 78748 ", "Latitude": "30.148782", "County": "Travis County", "id": "10003416", "Street": "I- 35"},
{"City": "Austin", "inspection-date": "2015-12-27T00:00:00Z", "Zip": "78723", "zip": "78723", "restaurant": "Family Dollar Store #1782", "process": "Routine Inspection", "Country": "US", "Number": "5811", "Longitude": "-97.693623", "Accuracy Score": "1", "Accuracy Type": "range_interpolation", "State": "TX", "score": "97", "address": "5811 BERKMAN DR Unit 114 AUSTIN, TX 78723 ", "Latitude": "30.311932", "County": "Travis County", "id": "10003488", "Street": "Berkman Dr"},
{"City": "Austin", "inspection-date": "2015-12-27T00:00:00Z", "Zip": "78745", "zip": "78745", "restaurant": "Family Dollar Store #3416", "process": "Routine Inspection", "Country": "US", "Number": "500", "Longitude": "-97.785818", "Accuracy Score": "1", "Accuracy Type": "range_interpolation", "State": "TX", "score": "95", "address": "500 W WILLIAM CANNON DR AUSTIN, TX 78745 ", "Latitude": "30.196387", "County": "Travis County", "id": "10003490", "Street": "W William Cannon Dr"},
{"City": "Austin", "inspection-date": "2014-12-28T00:00:00Z", "Zip": "78704", "zip": "78704", "restaurant": "Family Dollar Store #3834", "process": "Routine Inspection", "Country": "US", "Number": "118", "Longitude": "-97.750446", "Accuracy Score": "0.8", "Accuracy Type": "range_interpolation", "State": "TX", "score": "90", "address": "118 E OLTORF ST AUSTIN, TX 78704 ", "Latitude": "30.236915", "County": "Travis County", "id": "10003492", "Street": "E Oltorf St"},
{"City": "Austin", "inspection-date": "2014-12-28T00:00:00Z", "Zip": "78744", "zip": "78744", "restaurant": "Family Dollar Store #5520", "process": "Routine Inspection", "Country": "US", "Number": "5301", "Longitude": "-97.738014", "Accuracy Score": "0.8", "Accuracy Type": "range_interpolation", "State": "TX", "score": "93", "address": "5301 E STASSNEY LN AUSTIN, TX 78744 ", "Latitude": "30.193019", "County": "Travis County", "id": "10003495", "Street": "E Stassney Ln"},
{"City": "Austin", "inspection-date": "2015-12-27T00:00:00Z", "Zip": "78753", "zip": "78753", "restaurant": "Family Dollar Store #6170", "process": "Routine Inspection", "Country": "US", "Number": "9717", "Longitude": "-97.694999", "Accuracy Score": "1", "Accuracy Type": "range_interpolation", "State": "TX", "score": "91", "address": "9717 N LAMAR BLVD AUSTIN, TX 78753 ", "Latitude": "30.366569", "County": "Travis County", "id": "10003497", "Street": "N Lamar Blvd"},
{"City": "Austin", "inspection-date": "2014-12-28T00:00:00Z", "Zip": "78729", "zip": "78729", "restaurant": "Family Dollar Store #6767", "process": "Routine Inspection", "Country": "US", "Number": "9308", "Longitude": "-97.784407", "Accuracy Score": "1", "Accuracy Type": "range_interpolation", "State": "TX", "score": "100", "address": "9308 ANDERSON MILL RD AUSTIN, TX 78729 ", "Latitude": "30.450617", "County": "Williamson County", "id": "10003499", "Street": "Anderson Mill Rd"},
{"City": "Austin", "inspection-date": "2014-12-28T00:00:00Z", "Zip": "78721", "zip": "78721", "restaurant": "Family Dollar Store #6846", "process": "Routine Inspection", "Country": "US", "Number": "4701", "Longitude": "-97.681512", "Accuracy Score": "1", "Accuracy Type": "range_interpolation", "State": "TX", "score": "100", "address": "4701 E MARTIN LUTHER KING JR BLVD AUSTIN, TX 78721 ", "Latitude": "30.285831", "County": "Travis County", "id": "10003502", "Street": "E Martin Luther King Jr Blvd"},
{"City": "Austin", "inspection-date": "2014-12-28T00:00:00Z", "Zip": "78745", "zip": "78745", "restaurant": "SV - Cost Plus World Market", "process": "Routine Inspection", "Country": "US", "Number": "5601", "Longitude": "-97.821254", "Accuracy Score": "1", "Accuracy Type": "range_interpolation", "State": "TX", "score": "100", "address": "5601 BRODIE LN Unit 1100 SUNSET VALLEY, TX 78745 ", "Latitude": "30.22748", "County": "Travis County", "id": "10003517", "Street": "Brodie Ln"},
{"City": "Austin", "inspection-date": "2015-12-27T00:00:00Z", "Zip": "78704", "zip": "78704", "restaurant": "Uncle Billy's Brew & Que", "process": "Routine Inspection", "Country": "US", "Number": "1530", "Longitude": "-97.761091", "Accuracy Score": "1", "Accuracy Type": "range_interpolation", "State": "TX", "score": "92", "address": "1530 BARTON SPRINGS RD AUSTIN, TX 78704 ", "Latitude": "30.262078", "County": "Travis County", "id": "10003881", "Street": "Barton Springs Rd"},
{"City": "Austin", "inspection-date": "2014-12-28T00:00:00Z", "Zip": "78759", "zip": "78758", "restaurant": "Chuck E. Cheese's 586", "process": "Routine Inspection", "Country": "US", "Number": "10515", "Longitude": "-97.732443", "Accuracy Score": "1", "Accuracy Type": "range_interpolation", "State": "TX", "score": "90", "address": "10515 N MOPAC EXPY NB AUSTIN, TX 78758 ", "Latitude": "30.39552", "County": "Travis County", "id": "10003944", "Street": "N Mo-pac Expy"},
{"City": "Austin", "inspection-date": "2014-12-28T00:00:00Z", "Zip": "78753", "zip": "78753", "restaurant": "Chuy's North Lamar", "process": "Routine Inspection", "Country": "US", "Number": "10520", "Longitude": "-97.691151", "Accuracy Score": "1", "Accuracy Type": "range_interpolation", "State": "TX", "score": "85", "address": "10520 N LAMAR BLVD AUSTIN, TX 78753 ", "Latitude": "30.373838", "County": "Travis County", "id": "10003981", "Street": "N Lamar Blvd"},
{"City": "Austin", "inspection-date": "2014-12-28T00:00:00Z", "Zip": "78704", "zip": "78704", "restaurant": "Chuy's Barton Springs", "process": "Routine Inspection", "Country": "US", "Number": "1728", "Longitude": "-97.762766", "Accuracy Score": "1", "Accuracy Type": "range_interpolation", "State": "TX", "score": "80", "address": "1728 BARTON SPRINGS RD AUSTIN, TX 78704 ", "Latitude": "30.26343", "County": "Travis County", "id": "10003983", "Street": "Barton Springs Rd"},
{"City": "Austin", "inspection-date": "2015-12-27T00:00:00Z", "Zip": "78759", "zip": "78759", "restaurant": "Chuy's 183", "process": "Routine Inspection", "Country": "US", "Number": "11680", "Longitude": "-97.747288", "Accuracy Score": "1", "Accuracy Type": "range_interpolation", "State": "TX", "score": "97", "address": "11680 RESEARCH BLVD SB AUSTIN, TX 78759 ", "Latitude": "30.417947", "County": "Travis County", "id": "10003985", "Street": "Research Blvd"},
{"City": "Austin", "inspection-date": "2014-12-28T00:00:00Z", "Zip": "78737", "zip": "78737", "restaurant": "Seton Southwest Gift Shop", "process": "Routine Inspection", "Country": "US", "Number": "7900", "Longitude": "-97.931902", "Accuracy Score": "1", "Accuracy Type": "range_interpolation", "State": "TX", "score": "100", "address": "7900 FM 1826 RD AUSTIN, TX 78737 ", "Latitude": "30.173122", "County": "Travis County", "id": "10004202", "Street": "Fm 1826"},
{"City": "Austin", "inspection-date": "2015-12-27T00:00:00Z", "Zip": "78753", "zip": "78701", "restaurant": "Holiday Inn Austin Town Lake Pecan Tree Restaurant", "process": "Routine Inspection", "Country": "US", "Number": "", "Longitude": "-97.672564", "Accuracy Score": "0.8", "Accuracy Type": "street_center", "State": "TX", "score": "74", "address": "20 N IH 35 SVRD SB AUSTIN, TX 78701 ", "Latitude": "30.388532", "County": "Travis County", "id": "10004208", "Street": "I- 35"},
{"City": "Austin", "inspection-date": "2015-12-27T00:00:00Z", "Zip": "78753", "zip": "78723", "restaurant": "Dollar Tree Store #2875", "process": "Routine Inspection", "Country": "US", "Number": "", "Longitude": "-97.672564", "Accuracy Score": "0.8", "Accuracy Type": "street_center", "State": "TX", "score": "93", "address": "5425 N IH 35 SVRD NB AUSTIN, TX 78723 ", "Latitude": "30.388532", "County": "Travis County", "id": "10004227", "Street": "I- 35"},
{"City": "Austin", "inspection-date": "2014-12-28T00:00:00Z", "Zip": "78703", "zip": "78703", "restaurant": "Juice Land", "process": "Routine Inspection", "Country": "US", "Number": "2307", "Longitude": "-97.772353", "Accuracy Score": "1", "Accuracy Type": "range_interpolation", "State": "TX", "score": "96", "address": "2307 LAKE AUSTIN BLVD AUSTIN, TX 78703 ", "Latitude": "30.277828", "County": "Travis County", "id": "10004235", "Street": "Lake Austin Blvd"},
{"City": "Austin", "inspection-date": "2014-12-28T00:00:00Z", "Zip": "78735", "zip": "78735", "restaurant": "St. Andrew's Episcopal School-Concession", "process": "Routine Inspection", "Country": "US", "Number": "5901", "Longitude": "-97.848245", "Accuracy Score": "1", "Accuracy Type": "range_interpolation", "State": "TX", "score": "100", "address": "5901 SOUTHWEST PKWY AUSTIN, TX 78735 ", "Latitude": "30.247136", "County": "Travis County", "id": "10004307", "Street": "Southwest Pkwy"},
{"City": "Austin", "inspection-date": "2014-12-28T00:00:00Z", "Zip": "78757", "zip": "78757", "restaurant": "Schlotzsky's ", "process": "Routine Inspection", "Country": "US", "Number": "2545", "Longitude": "-97.734339", "Accuracy Score": "1", "Accuracy Type": "range_interpolation", "State": "TX", "score": "92", "address": "2545 W ANDERSON LN AUSTIN, TX 78757 ", "Latitude": "30.357543", "County": "Travis County", "id": "10004367", "Street": "W Anderson Ln"},
{"City": "Austin", "inspection-date": "2015-12-27T00:00:00Z", "Zip": "78729", "zip": "78729", "restaurant": "Schlotzsky's Stores, LLC", "process": "Routine Inspection", "Country": "US", "Number": "", "Longitude": "-97.78992", "Accuracy Score": "0.8", "Accuracy Type": "street_center", "State": "TX", "score": "82", "address": "13201 N FM 620 RD NB AUSTIN, TX 78729 ", "Latitude": "30.470027", "County": "Williamson County", "id": "10004373", "Street": "Fm 620"},
{"City": "Austin", "inspection-date": "2015-12-27T00:00:00Z", "Zip": "78759", "zip": "78759", "restaurant": "Schlotzsky's", "process": "Routine Inspection", "Country": "US", "Number": "5105", "Longitude": "-97.745922", "Accuracy Score": "1", "Accuracy Type": "range_interpolation", "State": "TX", "score": "94", "address": "5105 BALCONES WOODS DR AUSTIN, TX 78759 ", "Latitude": "30.408106", "County": "Travis County", "id": "10004376", "Street": "Balcones Woods Dr"},
{"City": "Austin", "inspection-date": "2014-12-28T00:00:00Z", "Zip": "78753", "zip": "78753", "restaurant": "Schlotzsky's Stores, LLC", "process": "Routine Inspection", "Country": "US", "Number": "500", "Longitude": "-97.671134", "Accuracy Score": "1", "Accuracy Type": "range_interpolation", "State": "TX", "score": "85", "address": "500 CANYON RIDGE DR Bldg G AUSTIN, TX 78753 ", "Latitude": "30.402623", "County": "Travis County", "id": "10004379", "Street": "Canyon Ridge Dr W"},
{"City": "Austin", "inspection-date": "2014-12-28T00:00:00Z", "Zip": "78729", "zip": "78729", "restaurant": "Schlotzsky's Stores, LLC", "process": "Routine Inspection", "Country": "US", "Number": "6301", "Longitude": "-97.743633", "Accuracy Score": "1", "Accuracy Type": "range_interpolation", "State": "TX", "score": "92", "address": "6301 W PARMER LN Unit 608 AUSTIN, TX 78729 ", "Latitude": "30.44561", "County": "Williamson County", "id": "10004382", "Street": "W Parmer Ln"},
{"City": "Austin", "inspection-date": "2015-12-27T00:00:00Z", "Zip": "78704", "zip": "78704", "restaurant": "Schlotzsky's", "process": "Routine Inspection", "Country": "US", "Number": "218", "Longitude": "-97.757404", "Accuracy Score": "1", "Accuracy Type": "range_interpolation", "State": "TX", "score": "93", "address": "218 S LAMAR BLVD AUSTIN, TX 78704 ", "Latitude": "30.264329", "County": "Travis County", "id": "10004385", "Street": "S Lamar Blvd"},
{"City": "Austin", "inspection-date": "2014-12-28T00:00:00Z", "Zip": "78748", "zip": "78748", "restaurant": "Dollar General Store #10315", "process": "Routine Inspection", "Country": "US", "Number": "9600", "Longitude": "-97.822643", "Accuracy Score": "1", "Accuracy Type": "range_interpolation", "State": "TX", "score": "87", "address": "9600 MANCHACA RD AUSTIN, TX 78748 ", "Latitude": "30.176217", "County": "Travis County", "id": "10004480", "Street": "Manchaca Rd"},
{"City": "Austin", "inspection-date": "2015-12-27T00:00:00Z", "Zip": "78753", "zip": "78702", "restaurant": "Doubletree Club Hotel", "process": "Routine Inspection", "Country": "US", "Number": "", "Longitude": "-97.672564", "Accuracy Score": "0.8", "Accuracy Type": "street_center", "State": "TX", "score": "88", "address": "1617 N IH 35 SVRD NB AUSTIN, TX 78702 ", "Latitude": "30.388532", "County": "Travis County", "id": "10004486", "Street": "I- 35"},
{"City": "Austin", "inspection-date": "2015-12-27T00:00:00Z", "Zip": "78750", "zip": "78729", "restaurant": "Pei Wei Asian Diner", "process": "Routine Inspection", "Country": "US", "Number": "13429", "Longitude": "-97.789736", "Accuracy Score": "1", "Accuracy Type": "range_interpolation", "State": "TX", "score": "87", "address": "13429 N US 183 HWY AUSTIN, TX 78729 ", "Latitude": "30.447067", "County": "Travis County", "id": "10004511", "Street": "N Us Hwy 183"},
{"City": "Austin", "inspection-date": "2014-12-28T00:00:00Z", "Zip": "78734", "zip": "78734", "restaurant": "LW - Brookdale Lakeway Skilled Nursing", "process": "Routine Inspection", "Country": "US", "Number": "1917", "Longitude": "-97.976813", "Accuracy Score": "1", "Accuracy Type": "range_interpolation", "State": "TX", "score": "88", "address": "1917 LOHMANS CROSSING RD LAKEWAY, TX 78734 ", "Latitude": "30.345647", "County": "Travis County", "id": "10004620", "Street": "Lohmans Crossing Rd"},
{"City": "Austin", "inspection-date": "2014-12-28T00:00:00Z", "Zip": "78757", "zip": "78757", "restaurant": "Read Pre-K Center", "process": "Routine Inspection", "Country": "US", "Number": "2608", "Longitude": "-97.73635", "Accuracy Score": "1", "Accuracy Type": "range_interpolation", "State": "TX", "score": "100", "address": "2608 RICHCREEK RD AUSTIN, TX 78757 ", "Latitude": "30.351652", "County": "Travis County", "id": "10004658", "Street": "Richcreek Rd"},
{"City": "Manor", "inspection-date": "2015-12-27T00:00:00Z", "Zip": "78653", "zip": "78653", "restaurant": "Blake Manor Food Mart", "process": "Routine Inspection", "Country": "US", "Number": "17530", "Longitude": "-97.540318", "Accuracy Score": "1", "Accuracy Type": "range_interpolation", "State": "TX", "score": "68", "address": "17530 BLAKE MANOR RD AUSTIN, TX 78653 ", "Latitude": "30.3183", "County": "Travis County", "id": "10004691", "Street": "Blake Manor Rd"},
{"City": "Austin", "inspection-date": "2014-12-28T00:00:00Z", "Zip": "78730", "zip": "78730", "restaurant": "The Children's Courtyard", "process": "Routine Inspection", "Country": "US", "Number": "", "Longitude": "-97.847071", "Accuracy Score": "0.8", "Accuracy Type": "street_center", "State": "TX", "score": "100", "address": "10625 BONAVENTURE DR AUSTIN, TX 78730 ", "Latitude": "30.391642", "County": "Travis County", "id": "10004728", "Street": "Bonaventure Dr"},
{"City": "Austin", "inspection-date": "2015-12-27T00:00:00Z", "Zip": "78745", "zip": "78745", "restaurant": "Shipley Do-Nuts", "process": "Routine Inspection", "Country": "US", "Number": "8213", "Longitude": "-97.838333", "Accuracy Score": "1", "Accuracy Type": "range_interpolation", "State": "TX", "score": "94", "address": "8213 BRODIE LN Unit 116 AUSTIN, TX 78745 ", "Latitude": "30.201269", "County": "Travis County", "id": "10004890", "Street": "Brodie Ln"},
{"City": "Austin", "inspection-date": "2014-12-28T00:00:00Z", "Zip": "78702", "zip": "78702", "restaurant": "Rio Rita", "process": "Routine Inspection", "Country": "US", "Number": "1308", "Longitude": "-97.729406", "Accuracy Score": "1", "Accuracy Type": "range_interpolation", "State": "TX", "score": "96", "address": "1308 E 6TH ST AUSTIN, TX 78702 ", "Latitude": "30.264159", "County": "Travis County", "id": "10004903", "Street": "E 6th St"},
{"City": "Austin", "inspection-date": "2014-12-28T00:00:00Z", "Zip": "78723", "zip": "78723", "restaurant": "Gaston Food Mart", "process": "Routine Inspection", "Country": "US", "Number": "2157", "Longitude": "-97.685623", "Accuracy Score": "1", "Accuracy Type": "range_interpolation", "State": "TX", "score": "91", "address": "2157 GASTON PLACE DR AUSTIN, TX 78723 ", "Latitude": "30.311708", "County": "Travis County", "id": "10004935", "Street": "Gaston Place Dr"},
{"City": "Austin", "inspection-date": "2015-12-27T00:00:00Z", "Zip": "78750", "zip": "78729", "restaurant": "KFC   Y343100", "process": "Routine Inspection", "Country": "US", "Number": "13435", "Longitude": "-97.789869", "Accuracy Score": "1", "Accuracy Type": "range_interpolation", "State": "TX", "score": "92", "address": "13435 N US 183 HWY NB AUSTIN, TX 78729 ", "Latitude": "30.447296", "County": "Travis County", "id": "10005095", "Street": "N Us Hwy 183"},
{"City": "Austin", "inspection-date": "2015-12-27T00:00:00Z", "Zip": "78757", "zip": "78757", "restaurant": "Delaney's", "process": "Routine Inspection", "Country": "US", "Number": "7849", "Longitude": "-97.740694", "Accuracy Score": "1", "Accuracy Type": "range_interpolation", "State": "TX", "score": "84", "address": "7849 SHOAL CREEK BLVD AUSTIN, TX 78757 ", "Latitude": "30.359803", "County": "Travis County", "id": "10005117", "Street": "Shoal Creek Blvd"},
{"City": "Austin", "inspection-date": "2015-12-27T00:00:00Z", "Zip": "78705", "zip": "78705", "restaurant": "Kolache Factory", "process": "Routine Inspection", "Country": "US", "Number": "3706", "Longitude": "-97.743558", "Accuracy Score": "1", "Accuracy Type": "range_interpolation", "State": "TX", "score": "96", "address": "3706 N LAMAR BLVD AUSTIN, TX 78705 ", "Latitude": "30.304622", "County": "Travis County", "id": "10005132", "Street": "N Lamar Blvd"},
{"City": "Austin", "inspection-date": "2014-12-28T00:00:00Z", "Zip": "78749", "zip": "78749", "restaurant": "Waterloo Ice House", "process": "Routine Inspection", "Country": "US", "Number": "", "Longitude": "-97.871667", "Accuracy Score": "0.8", "Accuracy Type": "street_center", "State": "TX", "score": "89", "address": "9600 ESCARPMENT BLVD Bunit 800 AUSTIN, TX 78749 ", "Latitude": "30.223869", "County": "Travis County", "id": "10005135", "Street": "Escarpment Blvd"},
{"City": "Austin", "inspection-date": "2014-12-28T00:00:00Z", "Zip": "78703", "zip": "78703", "restaurant": "Counter Cafe, The", "process": "Routine Inspection", "Country": "US", "Number": "626", "Longitude": "-97.754012", "Accuracy Score": "1", "Accuracy Type": "range_interpolation", "State": "TX", "score": "89", "address": "626 N LAMAR BLVD AUSTIN, TX 78703 ", "Latitude": "30.271807", "County": "Travis County", "id": "10005142", "Street": "N Lamar Blvd"},
{"City": "Austin", "inspection-date": "2014-12-28T00:00:00Z", "Zip": "78727", "zip": "78758", "restaurant": "Panda Express #1289", "process": "Routine Inspection", "Country": "US", "Number": "2501", "Longitude": "-97.701294", "Accuracy Score": "1", "Accuracy Type": "range_interpolation", "State": "TX", "score": "100", "address": "2501 W PARMER LN Unit 950 AUSTIN, TX 78758 ", "Latitude": "30.418238", "County": "Travis County", "id": "10005272", "Street": "W Parmer Ln"},
{"City": "Austin", "inspection-date": "2014-12-28T00:00:00Z", "Zip": "78754", "zip": "78758", "restaurant": "Wingstop", "process": "Routine Inspection", "Country": "US", "Number": "1701", "Longitude": "-97.688362", "Accuracy Score": "1", "Accuracy Type": "range_interpolation", "State": "TX", "score": "96", "address": "1701 W PARMER LN Unit 104 AUSTIN, TX 78758 ", "Latitude": "30.411992", "County": "Travis County", "id": "10005294", "Street": "W Parmer Ln"},
{"City": "Austin", "inspection-date": "2014-12-28T00:00:00Z", "Zip": "78746", "zip": "78746", "restaurant": "WL - Walgreens #06050", "process": "Routine Inspection", "Country": "US", "Number": "3700", "Longitude": "-97.806667", "Accuracy Score": "1", "Accuracy Type": "range_interpolation", "State": "TX", "score": "100", "address": "3700 BEE CAVES RD WEST LAKE HILLS, TX 78746 ", "Latitude": "30.279616", "County": "Travis County", "id": "10005361", "Street": "Bee Caves Rd"},
{"City": "Austin", "inspection-date": "2014-12-28T00:00:00Z", "Zip": "78753", "zip": "78753", "restaurant": "Dollar General Store #10876", "process": "Routine Inspection", "Country": "US", "Number": "825", "Longitude": "-97.6884", "Accuracy Score": "1", "Accuracy Type": "range_interpolation", "State": "TX", "score": "99", "address": "825 E RUNDBERG LN Unit V220 AUSTIN, TX 78753 ", "Latitude": "30.358126", "County": "Travis County", "id": "10005363", "Street": "E Rundberg Ln"},
{"City": "Austin", "inspection-date": "2015-12-27T00:00:00Z", "Zip": "78738", "zip": "78738", "restaurant": "LW - Flintrock Falls Country Club", "process": "Routine Inspection", "Country": "US", "Number": "401", "Longitude": "-97.982526", "Accuracy Score": "0.8", "Accuracy Type": "range_interpolation", "State": "TX", "score": "90", "address": "401 JACK NICKLAUS DR LAKEWAY, TX 78738 ", "Latitude": "30.339183", "County": "Travis County", "id": "10005392", "Street": "Jack Nicklaus Dr"},
{"City": "Austin", "inspection-date": "2015-12-27T00:00:00Z", "Zip": "78749", "zip": "78749", "restaurant": "Gold's Gym-South", "process": "Routine Inspection", "Country": "US", "Number": "4404", "Longitude": "-97.839478", "Accuracy Score": "1", "Accuracy Type": "range_interpolation", "State": "TX", "score": "90", "address": "4404 W WILLIAM CANNON DR AUSTIN, TX 78749 ", "Latitude": "30.222886", "County": "Travis County", "id": "10005653", "Street": "W William Cannon Dr"},
{"City": "Austin", "inspection-date": "2014-12-28T00:00:00Z", "Zip": "78748", "zip": "78748", "restaurant": "Ashley Furniture Homestore", "process": "Routine Inspection", "Country": "US", "Number": "", "Longitude": "-97.792996", "Accuracy Score": "0.8", "Accuracy Type": "street_center", "State": "TX", "score": "100", "address": "9900 S IH 35 SVRD SB Bldg C AUSTIN, TX 78748 ", "Latitude": "30.148782", "County": "Travis County", "id": "10005678", "Street": "I- 35"},
{"City": "Austin", "inspection-date": "2014-12-28T00:00:00Z", "Zip": "78704", "zip": "78704", "restaurant": "Chick-Fil-A", "process": "Routine Inspection", "Country": "US", "Number": "500", "Longitude": "-97.763619", "Accuracy Score": "0.8", "Accuracy Type": "range_interpolation", "State": "TX", "score": "73", "address": "500 E BEN WHITE BLVD WB Bldg B AUSTIN, TX 78704 ", "Latitude": "30.22194", "County": "Travis County", "id": "10005680", "Street": "E Ben White Blvd"},
{"City": "Austin", "inspection-date": "2015-12-27T00:00:00Z", "Zip": "78744", "zip": "78744", "restaurant": "H & H Ballroom", "process": "Routine Inspection", "Country": "US", "Number": "4404", "Longitude": "-97.771301", "Accuracy Score": "1", "Accuracy Type": "range_interpolation", "State": "TX", "score": "92", "address": "4404 BRANDT RD AUSTIN, TX 78744 ", "Latitude": "30.159743", "County": "Travis County", "id": "10005782", "Street": "Brandt Rd"},
{"City": "Austin", "inspection-date": "2014-12-28T00:00:00Z", "Zip": "78702", "zip": "78702", "restaurant": "Taqueria Los Jaliscienses #7", "process": "Routine Inspection", "Country": "US", "Number": "105", "Longitude": "-97.708502", "Accuracy Score": "1", "Accuracy Type": "range_interpolation", "State": "TX", "score": "62", "address": "105 TILLERY ST AUSTIN, TX 78702 ", "Latitude": "30.251952", "County": "Travis County", "id": "10005821", "Street": "Tillery St"},
{"City": "Austin", "inspection-date": "2014-12-28T00:00:00Z", "Zip": "78750", "zip": "78729", "restaurant": "Church's Chicken", "process": "Routine Inspection", "Country": "US", "Number": "13729", "Longitude": "-97.793302", "Accuracy Score": "1", "Accuracy Type": "range_interpolation", "State": "TX", "score": "89", "address": "13729 N US 183 HWY Unit 900 AUSTIN, TX 78729 ", "Latitude": "30.459434", "County": "Travis County", "id": "10005828", "Street": "N Us Hwy 183"},
{"City": "Austin", "inspection-date": "2014-12-28T00:00:00Z", "Zip": "78759", "zip": "78758", "restaurant": "Mimi's Cafe #126", "process": "Routine Inspection", "Country": "US", "Number": "10515", "Longitude": "-97.732443", "Accuracy Score": "1", "Accuracy Type": "range_interpolation", "State": "TX", "score": "85", "address": "10515 N MOPAC EXPY NB AUSTIN, TX 78758 ", "Latitude": "30.39552", "County": "Travis County", "id": "10005840", "Street": "N Mo-pac Expy"},
{"City": "Austin", "inspection-date": "2015-12-27T00:00:00Z", "Zip": "78758", "zip": "78758", "restaurant": "California Pizza Kitchen ", "process": "Routine Inspection", "Country": "US", "Number": "3401", "Longitude": "-97.727791", "Accuracy Score": "1", "Accuracy Type": "range_interpolation", "State": "TX", "score": "92", "address": "3401 ESPERANZA XING AUSTIN, TX 78758 ", "Latitude": "30.401982", "County": "Travis County", "id": "10005841", "Street": "Esperanza Xing"},
{"City": "Austin", "inspection-date": "2014-12-28T00:00:00Z", "Zip": "78735", "zip": "78704", "restaurant": "Plucker's Wing Bar", "process": "Routine Inspection", "Country": "US", "Number": "3909", "Longitude": "-97.789974", "Accuracy Score": "1", "Accuracy Type": "range_interpolation", "State": "TX", "score": "89", "address": "3909 S LAMAR BLVD NB Bldg B AUSTIN, TX 78704 ", "Latitude": "30.23786", "County": "Travis County", "id": "10005937", "Street": "S Lamar Blvd"},
{"City": "Austin", "inspection-date": "2015-12-27T00:00:00Z", "Zip": "78704", "zip": "78704", "restaurant": "Starbuck's Coffee # 10757", "process": "Routine Inspection", "Country": "US", "Number": "500", "Longitude": "-97.763619", "Accuracy Score": "0.8", "Accuracy Type": "range_interpolation", "State": "TX", "score": "99", "address": "500 E BEN WHITE BLVD WB AUSTIN, TX 78704 ", "Latitude": "30.22194", "County": "Travis County", "id": "10005994", "Street": "E Ben White Blvd"},
{"City": "Austin", "inspection-date": "2014-12-28T00:00:00Z", "Zip": "78702", "zip": "78702", "restaurant": "Golden Chick", "process": "Routine Inspection", "Country": "US", "Number": "1144", "Longitude": "-97.697542", "Accuracy Score": "1", "Accuracy Type": "range_interpolation", "State": "TX", "score": "88", "address": "1144 AIRPORT BLVD Unit 700 AUSTIN, TX 78702 ", "Latitude": "30.272185", "County": "Travis County", "id": "10006084", "Street": "Airport Blvd"},
{"City": "Austin", "inspection-date": "2015-12-27T00:00:00Z", "Zip": "78757", "zip": "78757", "restaurant": "Little Deli", "process": "Routine Inspection", "Country": "US", "Number": "7101", "Longitude": "-97.72533", "Accuracy Score": "1", "Accuracy Type": "range_interpolation", "State": "TX", "score": "97", "address": "7101 WOODROW AVE Unit A AUSTIN, TX 78757 ", "Latitude": "30.342045", "County": "Travis County", "id": "10006179", "Street": "Woodrow Ave"},
{"City": "Austin", "inspection-date": "2014-12-28T00:00:00Z", "Zip": "78705", "zip": "78705", "restaurant": "The Tejas Foundation", "process": "Routine Inspection", "Country": "US", "Number": "2600", "Longitude": "-97.744425", "Accuracy Score": "1", "Accuracy Type": "range_interpolation", "State": "TX", "score": "90", "address": "2600 RIO GRANDE ST AUSTIN, TX 78705 ", "Latitude": "30.290818", "County": "Travis County", "id": "10006226", "Street": "Rio Grande St"},
{"City": "Austin", "inspection-date": "2014-12-28T00:00:00Z", "Zip": "78753", "zip": "78752", "restaurant": "La Quinta Inn Austin North", "process": "Routine Inspection", "Country": "US", "Number": "", "Longitude": "-97.672564", "Accuracy Score": "0.8", "Accuracy Type": "street_center", "State": "TX", "score": "100", "address": "7622 N IH 35 SVRD SB AUSTIN, TX 78752 ", "Latitude": "30.388532", "County": "Travis County", "id": "10006310", "Street": "I- 35"},
{"City": "Austin", "inspection-date": "2015-12-27T00:00:00Z", "Zip": "78754", "zip": "78754", "restaurant": "Quiznos Sub", "process": "Routine Inspection", "Country": "US", "Number": "8201", "Longitude": "-97.667282", "Accuracy Score": "1", "Accuracy Type": "range_interpolation", "State": "TX", "score": "93", "address": "8201 CROSS PARK DR Bldg 2 AUSTIN, TX 78754 ", "Latitude": "30.329837", "County": "Travis County", "id": "10006313", "Street": "Cross Park Dr"},
{"City": "Austin", "inspection-date": "2014-12-28T00:00:00Z", "Zip": "78734", "zip": "78734", "restaurant": "LW - CVS Pharmacy #80", "process": "Routine Inspection", "Country": "US", "Number": "2306", "Longitude": "-97.941568", "Accuracy Score": "1", "Accuracy Type": "range_interpolation", "State": "TX", "score": "97", "address": "2306 S FM 620 RD LAKEWAY, TX 78734 ", "Latitude": "30.388716", "County": "Travis County", "id": "10006331", "Street": "Fm 620"},
{"City": "Austin", "inspection-date": "2014-12-28T00:00:00Z", "Zip": "78704", "zip": "78745", "restaurant": "Taqueria Los Jaliscienses", "process": "Routine Inspection", "Country": "US", "Number": "1815", "Longitude": "-97.786385", "Accuracy Score": "1", "Accuracy Type": "range_interpolation", "State": "TX", "score": "73", "address": "1815 W BEN WHITE BLVD EB AUSTIN, TX 78745 ", "Latitude": "30.228441", "County": "Travis County", "id": "10006349", "Street": "W Ben White Blvd"},
{"City": "Austin", "inspection-date": "2014-12-28T00:00:00Z", "Zip": "78744", "zip": "78745", "restaurant": "La Quinta Inn #0478", "process": "Routine Inspection", "Country": "US", "Number": "", "Longitude": "-97.752095", "Accuracy Score": "0.8", "Accuracy Type": "street_center", "State": "TX", "score": "100", "address": "4200 S IH 35 SVRD SB AUSTIN, TX 78745 ", "Latitude": "30.214281", "County": "Travis County", "id": "10006394", "Street": "S I- 35"},
{"City": "Austin", "inspection-date": "2015-12-27T00:00:00Z", "Zip": "78705", "zip": "78705", "restaurant": "New Speedway", "process": "Routine Inspection", "Country": "US", "Number": "3707", "Longitude": "-97.733678", "Accuracy Score": "1", "Accuracy Type": "range_interpolation", "State": "TX", "score": "85", "address": "3707 SPEEDWAY Unit 102 AUSTIN, TX 78705 ", "Latitude": "30.300075", "County": "Travis County", "id": "10006460", "Street": "Speedway"},
{"City": "Austin", "inspection-date": "2014-12-28T00:00:00Z", "Zip": "78754", "zip": "78754", "restaurant": "CVS Pharmacy #0357", "process": "Routine Inspection", "Country": "US", "Number": "1701", "Longitude": "-97.655031", "Accuracy Score": "0.8", "Accuracy Type": "range_interpolation", "State": "TX", "score": "100", "address": "1701 E PARMER LN AUSTIN, TX 78754 ", "Latitude": "30.399437", "County": "Travis County", "id": "10006741", "Street": "E Parmer Ln"},
{"City": "Austin", "inspection-date": "2014-12-28T00:00:00Z", "Zip": "78758", "zip": "78758", "restaurant": "Jasper's", "process": "Routine Inspection", "Country": "US", "Number": "11506", "Longitude": "-97.72611", "Accuracy Score": "0.8", "Accuracy Type": "range_interpolation", "State": "TX", "score": "72", "address": "11506 CENTURY OAKS TER Bunit 128 AUSTIN, TX 78758 ", "Latitude": "30.401684", "County": "Travis County", "id": "10006802", "Street": "Century Oaks Ter"},
{"City": "Austin", "inspection-date": "2015-12-27T00:00:00Z", "Zip": "78758", "zip": "78758", "restaurant": "Taco More", "process": "Routine Inspection", "Country": "US", "Number": "9414", "Longitude": "-97.70625", "Accuracy Score": "1", "Accuracy Type": "range_interpolation", "State": "TX", "score": "83", "address": "9414 PARKFIELD DR Unit 2 AUSTIN, TX 78758 ", "Latitude": "30.367736", "County": "Travis County", "id": "10006920", "Street": "Parkfield Dr"},
{"City": "Austin", "inspection-date": "2015-12-27T00:00:00Z", "Zip": "78705", "zip": "78705", "restaurant": "34th Street Catering", "process": "Routine Inspection", "Country": "US", "Number": "1009", "Longitude": "-97.745444", "Accuracy Score": "0.9", "Accuracy Type": "range_interpolation", "State": "TX", "score": "100", "address": "1009 W 34TH ST AUSTIN, TX 78705 ", "Latitude": "30.302934", "County": "Travis County", "id": "10006930", "Street": "W 34th St"},
{"City": "Austin", "inspection-date": "2015-12-27T00:00:00Z", "Zip": "78735", "zip": "78735", "restaurant": "Spec's Wines, Spirits & Finer Foods ", "process": "Routine Inspection", "Country": "US", "Number": "4970", "Longitude": "-97.819815", "Accuracy Score": "0.8", "Accuracy Type": "range_interpolation", "State": "TX", "score": "93", "address": "4970 W US 290 HWY WB AUSTIN, TX 78735 ", "Latitude": "30.233039", "County": "Travis County", "id": "10007038", "Street": "W Us Hwy 290"},
{"City": "Austin", "inspection-date": "2014-12-28T00:00:00Z", "Zip": "78745", "zip": "78745", "restaurant": "Long John Silvers", "process": "Routine Inspection", "Country": "US", "Number": "704", "Longitude": "-97.772597", "Accuracy Score": "1", "Accuracy Type": "range_interpolation", "State": "TX", "score": "89", "address": "704 E WILLIAM CANNON DR AUSTIN, TX 78745 ", "Latitude": "30.191398", "County": "Travis County", "id": "10007067", "Street": "E William Cannon Dr"},
{"City": "Austin", "inspection-date": "2015-12-27T00:00:00Z", "Zip": "78704", "zip": "78704", "restaurant": "Long John Silver's", "process": "Routine Inspection", "Country": "US", "Number": "1910", "Longitude": "-97.787413", "Accuracy Score": "1", "Accuracy Type": "range_interpolation", "State": "TX", "score": "85", "address": "1910 W BEN WHITE BLVD WB AUSTIN, TX 78704 ", "Latitude": "30.229288", "County": "Travis County", "id": "10007069", "Street": "W Ben White Blvd"},
{"City": "Austin", "inspection-date": "2014-12-28T00:00:00Z", "Zip": "78723", "zip": "78723", "restaurant": "Long John Silver's", "process": "Routine Inspection", "Country": "US", "Number": "5600", "Longitude": "-97.707283", "Accuracy Score": "1", "Accuracy Type": "range_interpolation", "State": "TX", "score": "97", "address": "5600 CAMERON RD AUSTIN, TX 78723 ", "Latitude": "30.311503", "County": "Travis County", "id": "10007072", "Street": "Cameron Rd"},
{"City": "Austin", "inspection-date": "2015-12-27T00:00:00Z", "Zip": "78753", "zip": "78753", "restaurant": "Lamar Food Mart", "process": "Routine Inspection", "Country": "US", "Number": "8545", "Longitude": "-97.704929", "Accuracy Score": "1", "Accuracy Type": "range_interpolation", "State": "TX", "score": "84", "address": "8545 N LAMAR BLVD AUSTIN, TX 78753 ", "Latitude": "30.353765", "County": "Travis County", "id": "10007100", "Street": "N Lamar Blvd"},
{"City": "Austin", "inspection-date": "2014-12-28T00:00:00Z", "Zip": "78705", "zip": "78705", "restaurant": "Aster's Ethiopian Restaurant", "process": "Routine Inspection", "Country": "US", "Number": "", "Longitude": "-97.736134", "Accuracy Score": "0.8", "Accuracy Type": "street_center", "State": "TX", "score": "95", "address": "2804 N IH 35 SVRD SB AUSTIN, TX 78705 ", "Latitude": "30.299968", "County": "Travis County", "id": "10007252", "Street": "W 35th St"},
{"City": "Pflugerville", "inspection-date": "2015-12-27T00:00:00Z", "Zip": "78660", "zip": "78660", "restaurant": "Capital City Kids 2 Daycare and Learning Center", "process": "Routine Inspection", "Country": "US", "Number": "", "Longitude": "-97.650604", "Accuracy Score": "0.8", "Accuracy Type": "street_center", "State": "TX", "score": "95", "address": "1900 E HOWARD LN Bldg A AUSTIN, TX 78660 ", "Latitude": "30.412008", "County": "Travis County", "id": "10007373", "Street": "E Howard Ln"},
{"City": "Austin", "inspection-date": "2015-12-27T00:00:00Z", "Zip": "78741", "zip": "78741", "restaurant": "Riverside Grocery", "process": "Routine Inspection", "Country": "US", "Number": "1727", "Longitude": "-97.730011", "Accuracy Score": "1", "Accuracy Type": "range_interpolation", "State": "TX", "score": "79", "address": "1727 E RIVERSIDE DR AUSTIN, TX 78741 ", "Latitude": "30.243767", "County": "Travis County", "id": "10007389", "Street": "E Riverside Dr"},
{"City": "Austin", "inspection-date": "2015-12-27T00:00:00Z", "Zip": "78753", "zip": "78752", "restaurant": "Chili's Grill and Bar", "process": "Routine Inspection", "Country": "US", "Number": "", "Longitude": "-97.672564", "Accuracy Score": "0.8", "Accuracy Type": "street_center", "State": "TX", "score": "94", "address": "6619 N IH 35 SVRD NB AUSTIN, TX 78752 ", "Latitude": "30.388532", "County": "Travis County", "id": "10007391", "Street": "I- 35"},
{"City": "Manor", "inspection-date": "2014-12-28T00:00:00Z", "Zip": "78653", "zip": "78653", "restaurant": "A Shady Deal", "process": "Routine Inspection", "Country": "US", "Number": "14219", "Longitude": "-97.505337", "Accuracy Score": "1", "Accuracy Type": "range_interpolation", "State": "TX", "score": "100", "address": "14219 LITTIG RD AUSTIN, TX 78653 ", "Latitude": "30.332253", "County": "Travis County", "id": "10008007", "Street": "Littig Rd"},
{"City": "Austin", "inspection-date": "2014-12-28T00:00:00Z", "Zip": "78738", "zip": "78738", "restaurant": "LW - Serene Hills Elementary", "process": "Routine Inspection", "Country": "US", "Number": "3301", "Longitude": "-97.995947", "Accuracy Score": "0.8", "Accuracy Type": "range_interpolation", "State": "TX", "score": "100", "address": "3301 SERENE HILLS DR LAKEWAY, TX 78738 ", "Latitude": "30.347878", "County": "Travis County", "id": "10008120", "Street": "Serene Hills Dr"},
{"City": "Austin", "inspection-date": "2014-12-28T00:00:00Z", "Zip": "78703", "zip": "78731", "restaurant": "Westwood Country Club - Tennis Grill", "process": "Routine Inspection", "Country": "US", "Number": "3808", "Longitude": "-97.771764", "Accuracy Score": "1", "Accuracy Type": "range_interpolation", "State": "TX", "score": "100", "address": "3808 W 35TH ST AUSTIN, TX 78731 ", "Latitude": "30.313255", "County": "Travis County", "id": "10008167", "Street": "W 35th St"},
{"City": "Austin", "inspection-date": "2015-12-27T00:00:00Z", "Zip": "78757", "zip": "78757", "restaurant": "Panda Express #1415", "process": "Routine Inspection", "Country": "US", "Number": "7718", "Longitude": "-97.732553", "Accuracy Score": "1", "Accuracy Type": "range_interpolation", "State": "TX", "score": "84", "address": "7718 BURNET RD AUSTIN, TX 78757 ", "Latitude": "30.353872", "County": "Travis County", "id": "10008532", "Street": "Burnet Rd"},
{"City": "Austin", "inspection-date": "2014-12-28T00:00:00Z", "Zip": "78745", "zip": "78745", "restaurant": "El Pollo Rico #4", "process": "Routine Inspection", "Country": "US", "Number": "730", "Longitude": "-97.783868", "Accuracy Score": "1", "Accuracy Type": "range_interpolation", "State": "TX", "score": "70", "address": "730 W STASSNEY LN AUSTIN, TX 78745 ", "Latitude": "30.209196", "County": "Travis County", "id": "10008709", "Street": "W Stassney Ln"},
{"City": "Austin", "inspection-date": "2015-12-27T00:00:00Z", "Zip": "78753", "zip": "78753", "restaurant": "Taqueria Guadalajara", "process": "Routine Inspection", "Country": "US", "Number": "9207", "Longitude": "-97.69792", "Accuracy Score": "1", "Accuracy Type": "range_interpolation", "State": "TX", "score": "80", "address": "9207 N LAMAR BLVD AUSTIN, TX 78753 ", "Latitude": "30.361112", "County": "Travis County", "id": "10008754", "Street": "N Lamar Blvd"},
{"City": "Austin", "inspection-date": "2014-12-28T00:00:00Z", "Zip": "78701", "zip": "78701", "restaurant": "Oil Can Harry's", "process": "Routine Inspection", "Country": "US", "Number": "211", "Longitude": "-97.744952", "Accuracy Score": "1", "Accuracy Type": "range_interpolation", "State": "TX", "score": "91", "address": "211 W 4TH ST AUSTIN, TX 78701 ", "Latitude": "30.266457", "County": "Travis County", "id": "10008787", "Street": "W 4th St"},
{"City": "Austin", "inspection-date": "2014-12-28T00:00:00Z", "Zip": "78758", "zip": "78758", "restaurant": "Kona Grill at the Domain", "process": "Routine Inspection", "Country": "US", "Number": "", "Longitude": "-97.726264", "Accuracy Score": "0.8", "Accuracy Type": "street_center", "State": "TX", "score": "85", "address": "11410 CENTURY OAKS TER Bunit 144 AUSTIN, TX 78758 ", "Latitude": "30.401588", "County": "Travis County", "id": "10008887", "Street": "Century Oaks Ter"},
{"City": "San Antonio", "inspection-date": "2014-12-28T00:00:00Z", "Zip": "78245", "zip": "78741", "restaurant": "El Taquito", "process": "Routine Inspection", "Country": "US", "Number": "", "Longitude": "-98.683021", "Accuracy Score": "0.8", "Accuracy Type": "street_center", "State": "TX", "score": "92", "address": "1713 OLD EAST RIVERSIDE DR AUSTIN, TX 78741 ", "Latitude": "29.428484", "County": "Bexar County", "id": "10008932", "Street": "Old Lk"},
{"City": "Austin", "inspection-date": "2014-12-28T00:00:00Z", "Zip": "78703", "zip": "78701", "restaurant": "Tiniest Bar in Texas", "process": "Routine Inspection", "Country": "US", "Number": "817", "Longitude": "-97.751702", "Accuracy Score": "1", "Accuracy Type": "range_interpolation", "State": "TX", "score": "90", "address": "817 W 5TH ST AUSTIN, TX 78701 ", "Latitude": "30.269325", "County": "Travis County", "id": "10009008", "Street": "W 5th St"},
{"City": "Austin", "inspection-date": "2015-12-27T00:00:00Z", "Zip": "78752", "zip": "78752", "restaurant": "Kim Phung Vietnamese and Chinese Restaurant", "process": "Routine Inspection", "Country": "US", "Number": "7601", "Longitude": "-97.715392", "Accuracy Score": "1", "Accuracy Type": "range_interpolation", "State": "TX", "score": "71", "address": "7601 N LAMAR BLVD NB Bldg I AUSTIN, TX 78752 ", "Latitude": "30.3431", "County": "Travis County", "id": "10009073", "Street": "N Lamar Blvd"},
{"City": "Austin", "inspection-date": "2014-12-28T00:00:00Z", "Zip": "78727", "zip": "78727", "restaurant": "Dollar Tree Store #3124", "process": "Routine Inspection", "Country": "US", "Number": "2500", "Longitude": "-97.701093", "Accuracy Score": "1", "Accuracy Type": "range_interpolation", "State": "TX", "score": "100", "address": "2500 W PARMER LN AUSTIN, TX 78727 ", "Latitude": "30.418601", "County": "Travis County", "id": "10009092", "Street": "W Parmer Ln"},
{"City": "Austin", "inspection-date": "2014-12-28T00:00:00Z", "Zip": "78745", "zip": "78745", "restaurant": "Dollar Tree Store #2988", "process": "Routine Inspection", "Country": "US", "Number": "500", "Longitude": "-97.785818", "Accuracy Score": "1", "Accuracy Type": "range_interpolation", "State": "TX", "score": "100", "address": "500 W WILLIAM CANNON DR AUSTIN, TX 78745 ", "Latitude": "30.196387", "County": "Travis County", "id": "10009096", "Street": "W William Cannon Dr"},
{"City": "Austin", "inspection-date": "2014-12-28T00:00:00Z", "Zip": "78753", "zip": "78753", "restaurant": "Tropical Smoothie Cafe", "process": "Routine Inspection", "Country": "US", "Number": "", "Longitude": "-97.672564", "Accuracy Score": "0.8", "Accuracy Type": "street_center", "State": "TX", "score": "87", "address": "12901 N IH 35 SVRD NB Bunit 1850 AUSTIN, TX 78753 ", "Latitude": "30.388532", "County": "Travis County", "id": "10009478", "Street": "I- 35"},
{"City": "Austin", "inspection-date": "2015-12-27T00:00:00Z", "Zip": "78758", "zip": "78758", "restaurant": "Starbucks Coffee #13331", "process": "Routine Inspection", "Country": "US", "Number": "", "Longitude": "-97.726264", "Accuracy Score": "0.8", "Accuracy Type": "street_center", "State": "TX", "score": "96", "address": "11410 CENTURY OAKS TER Bunit 108 AUSTIN, TX 78758 ", "Latitude": "30.401588", "County": "Travis County", "id": "10009728", "Street": "Century Oaks Ter"},
{"City": "Austin", "inspection-date": "2014-12-28T00:00:00Z", "Zip": "78748", "zip": "78748", "restaurant": "Domino's Pizza", "process": "Routine Inspection", "Country": "US", "Number": "1807", "Longitude": "-97.821475", "Accuracy Score": "1", "Accuracy Type": "range_interpolation", "State": "TX", "score": "100", "address": "1807 W SLAUGHTER LN Unit 465 AUSTIN, TX 78748 ", "Latitude": "30.17357", "County": "Travis County", "id": "10010126", "Street": "W Slaughter Ln"},
{"City": "Austin", "inspection-date": "2014-12-28T00:00:00Z", "Zip": "78704", "zip": "78704", "restaurant": "Botticelli's South Congress", "process": "Routine Inspection", "Country": "US", "Number": "1321", "Longitude": "-97.749379", "Accuracy Score": "0.9", "Accuracy Type": "range_interpolation", "State": "TX", "score": "95", "address": "1321 S CONGRESS AVE AUSTIN, TX 78704 ", "Latitude": "30.249922", "County": "Travis County", "id": "10012237", "Street": "Congress Ave S"},
{"City": "Pflugerville", "inspection-date": "2014-12-28T00:00:00Z", "Zip": "78660", "zip": "78660", "restaurant": "Chucho's Mexican Restaurant", "process": "Routine Inspection", "Country": "US", "Number": "1615", "Longitude": "-97.657778", "Accuracy Score": "1", "Accuracy Type": "range_interpolation", "State": "TX", "score": "96", "address": "1615 GRAND AVENUE PKWY AUSTIN, TX 78660 ", "Latitude": "30.456433", "County": "Travis County", "id": "10013559", "Street": "Grand Avenue Pkwy"},
{"City": "Austin", "inspection-date": "2014-12-28T00:00:00Z", "Zip": "78747", "zip": "78747", "restaurant": "Craigo's Pizza & Pastaria", "process": "Routine Inspection", "Country": "US", "Number": "", "Longitude": "-97.800974", "Accuracy Score": "0.8", "Accuracy Type": "street_center", "State": "TX", "score": "84", "address": "11215 S IH 35 SVRD NB AUSTIN, TX 78747 ", "Latitude": "30.12779", "County": "Travis County", "id": "10014353", "Street": "I- 35"},
{"City": "Austin", "inspection-date": "2014-12-28T00:00:00Z", "Zip": "78748", "zip": "78748", "restaurant": "Amy's Ice Cream", "process": "Routine Inspection", "Country": "US", "Number": "", "Longitude": "-97.792996", "Accuracy Score": "0.8", "Accuracy Type": "street_center", "State": "TX", "score": "85", "address": "9600 S IH 35 SVRD SB Bunit 400 AUSTIN, TX 78748 ", "Latitude": "30.148782", "County": "Travis County", "id": "10014585", "Street": "I- 35"},
{"City": "Austin", "inspection-date": "2015-12-27T00:00:00Z", "Zip": "78758", "zip": "78758", "restaurant": "McCormick and Schmick's Seafood Restaurant", "process": "Routine Inspection", "Country": "US", "Number": "11600", "Longitude": "-97.72529", "Accuracy Score": "1", "Accuracy Type": "range_interpolation", "State": "TX", "score": "88", "address": "11600 CENTURY OAKS TER Bunit 100 AUSTIN, TX 78758 ", "Latitude": "30.402795", "County": "Travis County", "id": "10014691", "Street": "Century Oaks Ter"},
{"City": "Del Valle", "inspection-date": "2015-12-27T00:00:00Z", "Zip": "78617", "zip": "78617", "restaurant": "Wild Bubba's Wild Game Grill", "process": "Routine Inspection", "Country": "US", "Number": "13912", "Longitude": "-97.636129", "Accuracy Score": "1", "Accuracy Type": "range_interpolation", "State": "TX", "score": "96", "address": "13912 FM 812 RD AUSTIN, TX 78617 ", "Latitude": "30.121472", "County": "Travis County", "id": "10015202", "Street": "Fm 812"},
{"City": "Austin", "inspection-date": "2014-12-28T00:00:00Z", "Zip": "78705", "zip": "78705", "restaurant": "Sushi Niichi", "process": "Routine Inspection", "Country": "US", "Number": "705", "Longitude": "-97.744731", "Accuracy Score": "1", "Accuracy Type": "range_interpolation", "State": "TX", "score": "100", "address": "705 W 24TH ST Bldg B AUSTIN, TX 78705 ", "Latitude": "30.28779", "County": "Travis County", "id": "10015230", "Street": "W 24th St"},
{"City": "Austin", "inspection-date": "2014-12-28T00:00:00Z", "Zip": "78750", "zip": "78750", "restaurant": "Hampton Inn and Suites Austin", "process": "Routine Inspection", "Country": "US", "Number": "10811", "Longitude": "-97.801306", "Accuracy Score": "1", "Accuracy Type": "range_interpolation", "State": "TX", "score": "96", "address": "10811 PECAN PARK BLVD AUSTIN, TX 78750 ", "Latitude": "30.463634", "County": "Travis County", "id": "10016822", "Street": "Pecan Park Blvd"},
{"City": "Austin", "inspection-date": "2014-12-28T00:00:00Z", "Zip": "78759", "zip": "78758", "restaurant": "Spec's Wines, Spirits & Finer Foods, #62", "process": "Routine Inspection", "Country": "US", "Number": "10515", "Longitude": "-97.732443", "Accuracy Score": "1", "Accuracy Type": "range_interpolation", "State": "TX", "score": "89", "address": "10515 N MOPAC EXPY NB Bldg K AUSTIN, TX 78758 ", "Latitude": "30.39552", "County": "Travis County", "id": "10016853", "Street": "N Mo-pac Expy"},
{"City": "Austin", "inspection-date": "2015-12-27T00:00:00Z", "Zip": "78717", "zip": "78717", "restaurant": "Gatti's Pizza", "process": "Routine Inspection", "Country": "US", "Number": "10510", "Longitude": "-97.774762", "Accuracy Score": "0.8", "Accuracy Type": "range_interpolation", "State": "TX", "score": "90", "address": "10510 W PARMER LN Unit 100 AUSTIN, TX 78717 ", "Latitude": "30.495921", "County": "Williamson County", "id": "10017505", "Street": "W Parmer Ln"},
{"City": "Austin", "inspection-date": "2014-12-28T00:00:00Z", "Zip": "78748", "zip": "78748", "restaurant": "CVS/Pharmacy #3881", "process": "Routine Inspection", "Country": "US", "Number": "520", "Longitude": "-97.797991", "Accuracy Score": "1", "Accuracy Type": "range_interpolation", "State": "TX", "score": "100", "address": "520 W SLAUGHTER LN AUSTIN, TX 78748 ", "Latitude": "30.171482", "County": "Travis County", "id": "10017515", "Street": "W Slaughter Ln"},
{"City": "Austin", "inspection-date": "2015-12-27T00:00:00Z", "Zip": "78748", "zip": "78748", "restaurant": "Jason's Deli", "process": "Routine Inspection", "Country": "US", "Number": "", "Longitude": "-97.792996", "Accuracy Score": "0.8", "Accuracy Type": "street_center", "State": "TX", "score": "97", "address": "9600 S IH 35 SVRD SB Bunit 500 AUSTIN, TX 78748 ", "Latitude": "30.148782", "County": "Travis County", "id": "10017881", "Street": "I- 35"},
{"City": "Manor", "inspection-date": "2014-12-28T00:00:00Z", "Zip": "78653", "zip": "78653", "restaurant": "MN - Manor New Tech High School", "process": "Routine Inspection", "Country": "US", "Number": "10323", "Longitude": "-97.572402", "Accuracy Score": "1", "Accuracy Type": "range_interpolation", "State": "TX", "score": "97", "address": "10323 E US 290 HWY SVRD EB MANOR, TX 78653 ", "Latitude": "30.345633", "County": "Travis County", "id": "10018050", "Street": "Us Hwy 290"},
{"City": "Manor", "inspection-date": "2014-12-28T00:00:00Z", "Zip": "78653", "zip": "78653", "restaurant": "MN - Excel High School", "process": "Routine Inspection", "Country": "US", "Number": "", "Longitude": "-97.508305", "Accuracy Score": "0.8", "Accuracy Type": "street_center", "State": "TX", "score": "100", "address": "600 E PARSONS ST MANOR, TX 78653 ", "Latitude": "30.29783", "County": "Travis County", "id": "10018060", "Street": "Parsons Rd"},
{"City": "Austin", "inspection-date": "2014-12-28T00:00:00Z", "Zip": "78745", "zip": "78745", "restaurant": "Cilantro's Mexican Restaurant", "process": "Routine Inspection", "Country": "US", "Number": "1025", "Longitude": "-97.786306", "Accuracy Score": "1", "Accuracy Type": "range_interpolation", "State": "TX", "score": "87", "address": "1025 W STASSNEY LN AUSTIN, TX 78745 ", "Latitude": "30.210005", "County": "Travis County", "id": "10019057", "Street": "W Stassney Ln"},
{"City": "Austin", "inspection-date": "2014-12-28T00:00:00Z", "Zip": "78741", "zip": "78741", "restaurant": "Payless Food Store", "process": "Routine Inspection", "Country": "US", "Number": "2400", "Longitude": "-97.73605", "Accuracy Score": "1", "Accuracy Type": "range_interpolation", "State": "TX", "score": "97", "address": "2400 BURLESON RD AUSTIN, TX 78741 ", "Latitude": "30.230961", "County": "Travis County", "id": "10021664", "Street": "Burleson Rd"},
{"City": "Austin", "inspection-date": "2015-12-27T00:00:00Z", "Zip": "78759", "zip": "78759", "restaurant": "Renaissance- Austin", "process": "Routine Inspection", "Country": "US", "Number": "11279", "Longitude": "-97.753099", "Accuracy Score": "1", "Accuracy Type": "range_interpolation", "State": "TX", "score": "96", "address": "11279 TAYLOR DRAPER LN AUSTIN, TX 78759 ", "Latitude": "30.411933", "County": "Travis County", "id": "10022684", "Street": "Taylor Draper Ln"},
{"City": "Austin", "inspection-date": "2015-12-27T00:00:00Z", "Zip": "78701", "zip": "78701", "restaurant": "J. Black's", "process": "Routine Inspection", "Country": "US", "Number": "710", "Longitude": "-97.749564", "Accuracy Score": "1", "Accuracy Type": "range_interpolation", "State": "TX", "score": "79", "address": "710 W 6TH ST AUSTIN, TX 78701 ", "Latitude": "30.270121", "County": "Travis County", "id": "10023830", "Street": "W 6th St"},
{"City": "Austin", "inspection-date": "2014-12-28T00:00:00Z", "Zip": "78754", "zip": "78754", "restaurant": "Taco Shack #8", "process": "Routine Inspection", "Country": "US", "Number": "8201", "Longitude": "-97.667282", "Accuracy Score": "1", "Accuracy Type": "range_interpolation", "State": "TX", "score": "82", "address": "8201 CROSS PARK DR AUSTIN, TX 78754 ", "Latitude": "30.329837", "County": "Travis County", "id": "10023889", "Street": "Cross Park Dr"},
{"City": "Cedar Park", "inspection-date": "2014-12-28T00:00:00Z", "Zip": "78613", "zip": "78613", "restaurant": "Pluckers Wing Bar", "process": "Routine Inspection", "Country": "US", "Number": "11066", "Longitude": "-97.802165", "Accuracy Score": "1", "Accuracy Type": "range_interpolation", "State": "TX", "score": "93", "address": "11066 PECAN PARK BLVD AUSTIN, TX 78613 ", "Latitude": "30.470514", "County": "Williamson County", "id": "10025010", "Street": "Pecan Park Blvd"},
{"City": "Austin", "inspection-date": "2014-12-28T00:00:00Z", "Zip": "78748", "zip": "78748", "restaurant": "Chili's Grill & Bar #1423", "process": "Routine Inspection", "Country": "US", "Number": "", "Longitude": "-97.792996", "Accuracy Score": "0.8", "Accuracy Type": "street_center", "State": "TX", "score": "89", "address": "9900 S IH 35 SVRD SB AUSTIN, TX 78748 ", "Latitude": "30.148782", "County": "Travis County", "id": "10026046", "Street": "I- 35"},
{"City": "Austin", "inspection-date": "2014-12-28T00:00:00Z", "Zip": "78758", "zip": "78758", "restaurant": "North", "process": "Routine Inspection", "Country": "US", "Number": "11506", "Longitude": "-97.72611", "Accuracy Score": "0.8", "Accuracy Type": "range_interpolation", "State": "TX", "score": "89", "address": "11506 CENTURY OAKS TER Bunit 124 AUSTIN, TX 78758 ", "Latitude": "30.401684", "County": "Travis County", "id": "10026049", "Street": "Century Oaks Ter"},
{"City": "Austin", "inspection-date": "2014-12-28T00:00:00Z", "Zip": "78735", "zip": "78735", "restaurant": "Querencia at Barton Creek", "process": "Routine Inspection", "Country": "US", "Number": "2500", "Longitude": "-97.868271", "Accuracy Score": "1", "Accuracy Type": "range_interpolation", "State": "TX", "score": "100", "address": "2500 BARTON CREEK BLVD AUSTIN, TX 78735 ", "Latitude": "30.289374", "County": "Travis County", "id": "10026760", "Street": "Barton Creek Blvd"},
{"City": "Austin", "inspection-date": "2014-12-28T00:00:00Z", "Zip": "78705", "zip": "78705", "restaurant": "Red River Market", "process": "Routine Inspection", "Country": "US", "Number": "3213", "Longitude": "-97.7271", "Accuracy Score": "1", "Accuracy Type": "range_interpolation", "State": "TX", "score": "80", "address": "3213 RED RIVER ST AUSTIN, TX 78705 ", "Latitude": "30.291134", "County": "Travis County", "id": "10027075", "Street": "Red River St"},
{"City": "Austin", "inspection-date": "2015-12-27T00:00:00Z", "Zip": "78759", "zip": "78759", "restaurant": "Sam's Boat Austin", "process": "Routine Inspection", "Country": "US", "Number": "10931", "Longitude": "-97.733585", "Accuracy Score": "1", "Accuracy Type": "range_interpolation", "State": "TX", "score": "89", "address": "10931 STONELAKE BLVD AUSTIN, TX 78759 ", "Latitude": "30.398833", "County": "Travis County", "id": "10028436", "Street": "Stonelake Blvd"},
{"City": "Austin", "inspection-date": "2015-12-27T00:00:00Z", "Zip": "78758", "zip": "78758", "restaurant": "Rutland Market", "process": "Routine Inspection", "Country": "US", "Number": "900", "Longitude": "-97.700301", "Accuracy Score": "1", "Accuracy Type": "range_interpolation", "State": "TX", "score": "76", "address": "900 RUTLAND DR AUSTIN, TX 78758 ", "Latitude": "30.367072", "County": "Travis County", "id": "10028448", "Street": "Rutland Dr"},
{"City": "Austin", "inspection-date": "2015-12-27T00:00:00Z", "Zip": "78745", "zip": "78745", "restaurant": "SV - BJ's Restaurant & Brewhouse", "process": "Routine Inspection", "Country": "US", "Number": "5207", "Longitude": "-97.818669", "Accuracy Score": "1", "Accuracy Type": "range_interpolation", "State": "TX", "score": "98", "address": "5207 BRODIE LN Unit 300 SUNSET VALLEY, TX 78745 ", "Latitude": "30.231471", "County": "Travis County", "id": "10029239", "Street": "Brodie Ln"},
{"City": "Leander", "inspection-date": "2014-12-28T00:00:00Z", "Zip": "78641", "zip": "78641", "restaurant": "Cherry Hollow Stop", "process": "Routine Inspection", "Country": "US", "Number": "11508", "Longitude": "-97.952797", "Accuracy Score": "1", "Accuracy Type": "range_interpolation", "State": "TX", "score": "93", "address": "11508 CHERRY HOLLOW XING LEANDER, TX 78641 ", "Latitude": "30.517896", "County": "Williamson County", "id": "10029389", "Street": "Cherry Hollow Xing"},
{"City": "Austin", "inspection-date": "2014-12-28T00:00:00Z", "Zip": "78723", "zip": "78723", "restaurant": "Seton Healthcare- Dell Children's Center", "process": "Routine Inspection", "Country": "US", "Number": "4900", "Longitude": "-97.70581", "Accuracy Score": "1", "Accuracy Type": "range_interpolation", "State": "TX", "score": "100", "address": "4900 MUELLER BLVD AUSTIN, TX 78723 ", "Latitude": "30.301352", "County": "Travis County", "id": "10029465", "Street": "Mueller Blvd"},
{"City": "Austin", "inspection-date": "2015-12-27T00:00:00Z", "Zip": "78745", "zip": "78745", "restaurant": "CVS/Pharmacy #0213", "process": "Routine Inspection", "Country": "US", "Number": "5526", "Longitude": "-97.774534", "Accuracy Score": "0.9", "Accuracy Type": "range_interpolation", "State": "TX", "score": "98", "address": "5526 S CONGRESS AVE AUSTIN, TX 78745 ", "Latitude": "30.205888", "County": "Travis County", "id": "10030528", "Street": "Congress Ave S"},
{"City": "Spicewood", "inspection-date": "2015-12-27T00:00:00Z", "Zip": "78669", "zip": "78669", "restaurant": "Willie's Burgers and BBQ", "process": "Routine Inspection", "Country": "US", "Number": "", "Longitude": "-98.156407", "Accuracy Score": "0.3", "Accuracy Type": "place", "State": "TX", "score": "85", "address": "21018 W SH 71 Unit 200 SPICEWOOD, TX 78669 ", "Latitude": "30.475472", "County": "Burnet County", "id": "10030534", "Street": ""},
{"City": "Austin", "inspection-date": "2014-12-28T00:00:00Z", "Zip": "78748", "zip": "78748", "restaurant": "Cinemark #384", "process": "Routine Inspection", "Country": "US", "Number": "", "Longitude": "-97.792996", "Accuracy Score": "0.8", "Accuracy Type": "street_center", "State": "TX", "score": "93", "address": "9900 S IH 35 SVRD SB Bldg N AUSTIN, TX 78748 ", "Latitude": "30.148782", "County": "Travis County", "id": "10031108", "Street": "I- 35"},
{"City": "Spicewood", "inspection-date": "2014-12-28T00:00:00Z", "Zip": "78669", "zip": "78669", "restaurant": "LW-Arctic Spirits, Inc.", "process": "Routine Inspection", "Country": "US", "Number": "5004", "Longitude": "-98.027194", "Accuracy Score": "1", "Accuracy Type": "range_interpolation", "State": "TX", "score": "97", "address": "5004 BEE CREEK RD LAKEWAY, TX 78669 ", "Latitude": "30.338983", "County": "Burnet County", "id": "10031871", "Street": "Bee Creek Rd"},
{"City": "Austin", "inspection-date": "2014-12-28T00:00:00Z", "Zip": "78752", "zip": "78754", "restaurant": "Walnut Market #1", "process": "Routine Inspection", "Country": "US", "Number": "1900", "Longitude": "-97.680209", "Accuracy Score": "1", "Accuracy Type": "range_interpolation", "State": "TX", "score": "94", "address": "1900 E ANDERSON LN WB Unit 101 AUSTIN, TX 78754 ", "Latitude": "30.33003", "County": "Travis County", "id": "10031957", "Street": "E Anderson Ln"},
{"City": "Austin", "inspection-date": "2015-12-27T00:00:00Z", "Zip": "78723", "zip": "78723", "restaurant": "Walnut Market #2", "process": "Routine Inspection", "Country": "US", "Number": "5517", "Longitude": "-97.704756", "Accuracy Score": "1", "Accuracy Type": "range_interpolation", "State": "TX", "score": "85", "address": "5517 CAMERON RD AUSTIN, TX 78723 ", "Latitude": "30.313078", "County": "Travis County", "id": "10031959", "Street": "Cameron Rd"},
{"City": "Austin", "inspection-date": "2014-12-28T00:00:00Z", "Zip": "78704", "zip": "78704", "restaurant": "New Generation Daycare", "process": "Routine Inspection", "Country": "US", "Number": "2606", "Longitude": "-97.761388", "Accuracy Score": "1", "Accuracy Type": "range_interpolation", "State": "TX", "score": "93", "address": "2606 S 1ST ST AUSTIN, TX 78704 ", "Latitude": "30.23957", "County": "Travis County", "id": "10034117", "Street": "S 1st St"},
{"City": "Austin", "inspection-date": "2014-12-28T00:00:00Z", "Zip": "78703", "zip": "78703", "restaurant": "Zocalo Cafe- Taqueria Fresca", "process": "Routine Inspection", "Country": "US", "Number": "1110", "Longitude": "-97.759525", "Accuracy Score": "1", "Accuracy Type": "range_interpolation", "State": "TX", "score": "97", "address": "1110 WEST LYNN ST AUSTIN, TX 78703 ", "Latitude": "30.279913", "County": "Travis County", "id": "10034278", "Street": "W Lynn St"},
{"City": "Austin", "inspection-date": "2014-12-28T00:00:00Z", "Zip": "78704", "zip": "78745", "restaurant": "Sunrise Food Mart", "process": "Routine Inspection", "Country": "US", "Number": "1913", "Longitude": "-97.787576", "Accuracy Score": "1", "Accuracy Type": "range_interpolation", "State": "TX", "score": "100", "address": "1913 W BEN WHITE BLVD EB AUSTIN, TX 78745 ", "Latitude": "30.229035", "County": "Travis County", "id": "10034287", "Street": "W Ben White Blvd"},
{"City": "Austin", "inspection-date": "2014-12-28T00:00:00Z", "Zip": "78753", "zip": "78753", "restaurant": "Pizza Hut", "process": "Routine Inspection", "Country": "US", "Number": "1015", "Longitude": "-97.672367", "Accuracy Score": "1", "Accuracy Type": "range_interpolation", "State": "TX", "score": "92", "address": "1015 E BRAKER LN AUSTIN, TX 78753 ", "Latitude": "30.375149", "County": "Travis County", "id": "10034421", "Street": "E Braker Ln"},
{"City": "Austin", "inspection-date": "2014-12-28T00:00:00Z", "Zip": "78748", "zip": "78748", "restaurant": "Waterloo Ice House", "process": "Routine Inspection", "Country": "US", "Number": "", "Longitude": "-97.792996", "Accuracy Score": "0.8", "Accuracy Type": "street_center", "State": "TX", "score": "84", "address": "9600 S IH 35 SVRD SB Bunit 500 AUSTIN, TX 78748 ", "Latitude": "30.148782", "County": "Travis County", "id": "10035159", "Street": "I- 35"},
{"City": "Austin", "inspection-date": "2015-12-27T00:00:00Z", "Zip": "78724", "zip": "78724", "restaurant": "Loyola Grocery", "process": "Routine Inspection", "Country": "US", "Number": "6710", "Longitude": "-97.645802", "Accuracy Score": "1", "Accuracy Type": "range_interpolation", "State": "TX", "score": "79", "address": "6710 LOYOLA LN AUSTIN, TX 78724 ", "Latitude": "30.299249", "County": "Travis County", "id": "10035246", "Street": "Loyola Ln"},
{"City": "Austin", "inspection-date": "2015-12-27T00:00:00Z", "Zip": "78759", "zip": "78758", "restaurant": "Potbelly Sandwich Works", "process": "Routine Inspection", "Country": "US", "Number": "10515", "Longitude": "-97.732443", "Accuracy Score": "1", "Accuracy Type": "range_interpolation", "State": "TX", "score": "88", "address": "10515 N MOPAC EXPY NB Bunit 300 AUSTIN, TX 78758 ", "Latitude": "30.39552", "County": "Travis County", "id": "10035755", "Street": "N Mo-pac Expy"},
{"City": "Austin", "inspection-date": "2014-12-28T00:00:00Z", "Zip": "78748", "zip": "78748", "restaurant": "Pho Thai Son", "process": "Routine Inspection", "Country": "US", "Number": "", "Longitude": "-97.792996", "Accuracy Score": "0.8", "Accuracy Type": "street_center", "State": "TX", "score": "75", "address": "9500 S IH 35 SVRD SB Bldg L AUSTIN, TX 78748 ", "Latitude": "30.148782", "County": "Travis County", "id": "10036105", "Street": "I- 35"},
{"City": "Manor", "inspection-date": "2014-12-28T00:00:00Z", "Zip": "78653", "zip": "78653", "restaurant": "MN - Shadow Glen Golf Club", "process": "Routine Inspection", "Country": "US", "Number": "", "Longitude": "-97.557179", "Accuracy Score": "0.8", "Accuracy Type": "street_center", "State": "TX", "score": "97", "address": "12801 LEXINGTON ST MANOR, TX 78653 ", "Latitude": "30.343716", "County": "Travis County", "id": "10036116", "Street": "Lexington St"},
{"City": "Austin", "inspection-date": "2015-12-27T00:00:00Z", "Zip": "78758", "zip": "78758", "restaurant": "Rutland Food Store", "process": "Routine Inspection", "Country": "US", "Number": "1747", "Longitude": "-97.71605", "Accuracy Score": "1", "Accuracy Type": "range_interpolation", "State": "TX", "score": "93", "address": "1747 RUTLAND DR AUSTIN, TX 78758 ", "Latitude": "30.380514", "County": "Travis County", "id": "10036187", "Street": "Rutland Dr"},
{"City": "Austin", "inspection-date": "2015-12-27T00:00:00Z", "Zip": "78701", "zip": "78701", "restaurant": "Little Woodrow's", "process": "Routine Inspection", "Country": "US", "Number": "520", "Longitude": "-97.747502", "Accuracy Score": "1", "Accuracy Type": "range_interpolation", "State": "TX", "score": "84", "address": "520 W 6TH ST AUSTIN, TX 78701 ", "Latitude": "30.269525", "County": "Travis County", "id": "10036299", "Street": "W 6th St"},
{"City": "Austin", "inspection-date": "2015-12-27T00:00:00Z", "Zip": "78723", "zip": "78723", "restaurant": "Rosie's Day Care #3", "process": "Routine Inspection", "Country": "US", "Number": "5807", "Longitude": "-97.687886", "Accuracy Score": "1", "Accuracy Type": "range_interpolation", "State": "TX", "score": "97", "address": "5807 WELLINGTON DR AUSTIN, TX 78723 ", "Latitude": "30.311153", "County": "Travis County", "id": "10037233", "Street": "Wellington Dr"},
{"City": "Austin", "inspection-date": "2015-12-27T00:00:00Z", "Zip": "78728", "zip": "78728", "restaurant": "Crawfish Shack and Oyster Bar", "process": "Routine Inspection", "Country": "US", "Number": "2013", "Longitude": "-97.682226", "Accuracy Score": "1", "Accuracy Type": "range_interpolation", "State": "TX", "score": "80", "address": "2013 W WELLS BRANCH PKWY AUSTIN, TX 78728 ", "Latitude": "30.435272", "County": "Travis County", "id": "10037846", "Street": "Wells Branch Pkwy"},
{"City": "Austin", "inspection-date": "2015-12-27T00:00:00Z", "Zip": "78704", "zip": "78704", "restaurant": "Thom's Market", "process": "Routine Inspection", "Country": "US", "Number": "1418", "Longitude": "-97.759231", "Accuracy Score": "1", "Accuracy Type": "range_interpolation", "State": "TX", "score": "95", "address": "1418 BARTON SPRINGS RD AUSTIN, TX 78704 ", "Latitude": "30.261376", "County": "Travis County", "id": "10037850", "Street": "Barton Springs Rd"},
{"City": "Austin", "inspection-date": "2014-12-28T00:00:00Z", "Zip": "78754", "zip": "78754", "restaurant": "Samsung Austin Semiconductor- A2/Compass Group", "process": "Routine Inspection", "Country": "US", "Number": "12100", "Longitude": "-97.630735", "Accuracy Score": "1", "Accuracy Type": "range_interpolation", "State": "TX", "score": "96", "address": "12100 SAMSUNG BLVD AUSTIN, TX 78754 ", "Latitude": "30.377784", "County": "Travis County", "id": "10038665", "Street": "Samsung Blvd"},